City_ID,City,Lat,Lng,Max Temp,Humidity,Cloudiness,Wind Speed,Country,Date
0,wailua homesteads,22.0669,-159.378,28.44,75,0,7.72,US,1690490038
1,alofi,-19.0595,-169.9187,20.94,88,100,1.54,NU,1690490038
2,grytviken,-54.2811,-36.5092,-0.89,97,100,3.36,GS,1690490038
3,zarzis,33.504,11.1122,26.73,70,0,5.7,TN,1690490038
4,labytnangi,66.6572,66.4183,15.63,92,78,3.03,RU,1690490038
5,blackmans bay,-43.0167,147.3167,12.07,77,92,3.28,AU,1690490038
6,tionk essil,12.7856,-16.5217,29.03,81,38,4.66,SN,1690490038
7,port mathurin,-19.6833,63.4167,23.52,78,17,6.61,MU,1690490038
8,bethel,41.3712,-73.414,33.34,64,20,6.69,US,1690490039
9,rongelap,11.1635,166.8941,28.63,80,100,8.79,MH,1690490039
10,severo-yeniseyskiy,60.3725,93.0408,13.43,94,58,1.71,RU,1690490039
11,waitangi,-43.9535,-176.5597,8.79,77,36,3.58,NZ,1690490039
12,puerto san jose,13.9256,-90.8244,31.54,63,73,4.58,GT,1690490039
13,tromso,69.6496,18.957,12.43,87,0,6.69,NO,1690490039
14,port-aux-francais,-49.35,70.2167,5.38,87,83,12.35,TF,1690490039
15,qaqortoq,60.7167,-46.0333,7.75,70,100,0.42,GL,1690489758
16,grand falls-windsor,48.9332,-55.6649,23.06,83,95,1.79,CA,1690490039
17,pisco,-13.7,-76.2167,22.03,64,0,9.26,PE,1690490039
18,alice springs,-23.7,133.8833,12.75,94,100,2.06,AU,1690490039
19,yellowknife,62.456,-114.3525,25.29,29,20,3.09,CA,1690489967
20,olonkinbyen,70.9221,-8.7187,5.0,89,100,5.59,SJ,1690490039
21,adamstown,-25.066,-130.1015,19.35,59,22,1.67,PN,1690490040
22,petropavlovsk-kamchatsky,53.0452,158.6483,11.33,100,75,2.0,RU,1690489844
23,santana,-0.0583,-51.1817,30.1,74,75,4.63,BR,1690490040
24,nikolayevsk-on-amure,53.1406,140.73,20.19,73,1,1.35,RU,1690490040
25,pointe michel,15.25,-61.3833,27.9,80,100,5.94,DM,1690490040
26,santiago de cao,-7.9589,-79.2392,23.07,73,3,5.14,PE,1690490040
27,hillsborough,37.5741,-122.3794,29.13,66,20,7.72,US,1690490040
28,saipan,15.1355,145.701,26.39,100,75,3.09,MP,1690490040
29,callao,-12.0667,-77.15,22.16,64,0,6.69,PE,1690490040
30,invercargill,-46.4,168.35,4.63,83,97,3.21,NZ,1690490040
31,hermanus,-34.4187,19.2345,8.22,77,0,1.69,ZA,1690490040
32,ilulissat,69.2167,-51.1,6.01,87,75,2.06,GL,1690490041
33,zaozersk,69.4005,32.4476,9.84,95,66,1.19,RU,1690490041
34,avarua,-21.2078,-159.775,24.03,69,92,0.51,CK,1690490041
35,likiep,9.8251,169.3107,28.47,80,100,9.61,MH,1690490041
36,enewetak,11.3474,162.3373,28.06,80,100,6.64,MH,1690490041
37,formosa do rio preto,-11.0483,-45.1931,27.15,33,45,2.08,BR,1690490041
38,ha tinh,18.3333,105.9,27.88,76,94,1.76,VN,1690490041
39,iqaluit,63.7506,-68.5145,13.85,58,75,2.57,CA,1690490041
40,kodiak,57.79,-152.4072,12.73,88,100,4.63,US,1690490041
41,albany,42.6001,-73.9662,29.14,80,39,1.79,US,1690489848
42,bilibino,68.0546,166.4372,10.56,71,99,1.84,RU,1690489943
43,tura,25.5198,90.2201,23.48,97,100,2.41,IN,1690490042
44,howard springs,-12.497,131.047,22.95,68,0,1.66,AU,1690490042
45,isafjordur,66.0755,-23.124,7.29,88,97,4.24,IS,1690490042
46,kuching,1.55,110.3333,26.1,90,20,2.24,MY,1690490026
47,lompoc,34.6391,-120.4579,34.45,82,75,5.14,US,1690489915
48,zhaotong,27.3167,103.7167,17.02,98,95,2.12,CN,1690489829
49,rehoboth,-23.3167,17.0833,15.82,24,5,3.12,NA,1690489771
50,as sulayyil,20.4607,45.5779,36.14,12,82,4.08,SA,1690490042
51,edinburgh of the seven seas,-37.0676,-12.3116,10.17,51,39,3.1,SH,1690490042
52,bredasdorp,-34.5322,20.0403,9.71,89,0,1.36,ZA,1690490042
53,kailua-kona,19.6406,-155.9956,30.15,80,40,3.09,US,1690490043
54,altai,46.3722,96.2583,16.69,31,40,1.39,MN,1690490043
55,nuuk,64.1835,-51.7216,11.34,66,75,5.66,GL,1690489800
56,puerto natales,-51.7236,-72.4875,-2.02,92,57,0.32,CL,1690490043
57,afaahiti,-17.75,-149.2833,26.93,86,43,5.15,PF,1690490043
58,ushuaia,-54.8,-68.3,1.81,48,20,1.54,AR,1690490043
59,kuanda,56.3161,116.0806,17.28,89,100,0.63,RU,1690490043
60,khabary,53.6259,79.5345,18.24,71,100,0.94,RU,1690490043
61,princeville,45.7668,-61.2985,27.36,72,0,5.14,CA,1690490043
62,belaya kholunitsa,58.84,50.8528,15.95,97,63,2.48,RU,1690490044
63,cannonvale,-20.2833,148.7,19.66,86,99,5.62,AU,1690490044
64,porto novo,6.4965,2.6036,24.82,90,100,3.92,BJ,1690490044
65,walvis bay,-22.9575,14.5053,12.53,87,5,3.09,NA,1690490049
66,cockburn town,21.4612,-71.1419,30.98,66,40,6.17,TC,1690489986
67,touros,-5.1989,-35.4608,25.37,83,0,6.15,BR,1690489824
68,rosario oeste,-14.8361,-56.4275,33.41,21,45,1.09,BR,1690490049
69,chesma,53.8111,60.6533,19.76,64,11,3.74,RU,1690490049
70,siwa oasis,29.2041,25.5195,32.7,34,4,6.53,EG,1690490050
71,makinsk,52.6292,70.4169,17.47,73,80,2.74,KZ,1690490050
72,sulak,43.2734,47.5146,25.24,78,0,10.44,RU,1690490050
73,sola,-13.8833,167.55,24.93,78,100,13.0,VU,1690490050
74,ola,59.5833,151.2833,13.97,68,5,2.6,RU,1690490003
75,sarangarh,21.6,83.0833,27.61,82,99,1.3,IN,1690490050
76,tannum sands,-23.9504,151.3693,16.94,67,75,3.6,AU,1690490050
77,margaret river,-33.95,115.0667,13.64,73,100,8.35,AU,1690490050
78,san mariano,7.5,126.0,22.81,95,100,1.56,PH,1690490050
79,kingston,17.997,-76.7936,31.53,68,75,9.77,JM,1690490050
80,iquitos,-3.7481,-73.2472,33.02,58,40,2.06,PE,1690490050
81,ranot,7.7777,100.3213,27.31,82,100,6.88,TH,1690490051
82,tiksi,71.6872,128.8694,8.89,62,34,2.82,RU,1690490051
83,qa'en,33.7265,59.1844,24.47,32,0,3.46,IR,1690490051
84,san carlos,9.6612,-68.5827,27.57,85,79,0.94,VE,1690489871
85,inawashiro,37.5667,140.1167,20.98,89,8,0.83,JP,1690490051
86,chibougamau,49.9168,-74.3659,22.46,32,27,3.13,CA,1690489947
87,tsiombe,-25.3,45.4833,18.11,66,0,5.59,MG,1690490051
88,puerto deseado,-47.7503,-65.8938,3.21,66,14,4.92,AR,1690490051
89,oneonta,42.4529,-75.0638,26.27,19,52,4.46,US,1690489852
90,yuzhno-kurilsk,44.0306,145.8556,20.09,92,47,1.27,RU,1690490051
91,stanley,54.868,-1.6985,17.51,86,75,3.09,GB,1690489780
92,vadso,70.0744,29.7487,13.49,93,75,3.6,NO,1690490052
93,alaghsas,17.0187,8.0168,37.37,18,36,4.48,NE,1690490052
94,dharmadam,11.7833,75.4333,25.09,84,88,2.4,IN,1690490052
95,usinsk,65.9939,57.5281,14.37,92,98,3.41,RU,1690490052
96,tari,12.4086,4.4914,28.94,57,89,4.48,NG,1690490052
97,sinabang,2.4803,96.3801,26.34,83,39,1.8,ID,1690490052
98,xining,36.6167,101.7667,11.26,85,0,1.23,CN,1690490052
99,thompson,55.7435,-97.8558,12.09,82,75,3.6,CA,1690490052
100,saint-pierre,-21.3393,55.4781,19.82,73,75,2.57,RE,1690490052
101,iskateley,67.6803,53.1512,15.7,87,100,2.14,RU,1690490052
102,al kharj,24.155,47.3346,37.32,13,62,3.55,SA,1690490052
103,pa daet,19.5049,99.9924,24.77,79,100,1.02,TH,1690490053
104,el vendrell,41.2167,1.5333,27.48,97,41,4.02,ES,1690490053
105,viedma,-40.8135,-62.9967,4.52,89,99,3.93,AR,1690490053
106,west island,-12.1568,96.8225,23.99,83,40,9.26,CC,1690490053
107,namibe,-15.1961,12.1522,15.92,84,31,4.5,AO,1690489884
108,misratah,32.3754,15.0925,27.19,66,0,3.79,LY,1690490053
109,punta arenas,-53.15,-70.9167,-0.79,84,4,2.26,CL,1690489808
110,port elizabeth,-33.918,25.5701,15.16,88,0,3.09,ZA,1690490053
111,prabumulih,-3.45,104.25,23.07,95,82,1.16,ID,1690490053
112,georgetown,5.4112,100.3354,27.96,92,20,1.03,MY,1690489785
113,osakarovka,50.565,72.5692,17.03,67,40,2.11,KZ,1690490053
114,longyearbyen,78.2186,15.6401,10.91,62,40,8.75,SJ,1690490054
115,patnanungan,14.7833,122.1833,28.15,77,100,4.71,PH,1690490054
116,nogliki,51.8333,143.1667,12.4,93,98,2.81,RU,1690490054
117,lake murray of richland,34.1205,-81.2645,35.58,59,89,3.87,US,1690490054
118,sambek,47.7431,39.8308,25.6,38,3,6.09,RU,1690490054
119,bandon,51.7469,-8.7425,16.77,88,50,3.27,IE,1690490054
120,dickson,36.077,-87.3878,36.08,59,0,4.63,US,1690490055
121,thongwa,16.7619,96.5278,25.09,90,96,3.32,MM,1690490055
122,ghansor,22.65,79.95,26.57,81,100,1.59,IN,1690490055
123,colonia menno,-22.3667,-59.8167,21.57,68,100,4.23,PY,1690490055
124,nar'yan-mar,67.6713,53.087,15.79,86,100,2.1,RU,1690490055
125,chistopol',55.3631,50.6424,20.52,77,0,1.9,RU,1690490055
126,whitehorse,60.7161,-135.0538,21.68,60,75,4.63,CA,1690489477
127,hamilton,39.1834,-84.5333,35.68,66,75,6.17,US,1690489922
128,nadi,-17.8,177.4167,20.0,77,40,1.54,FJ,1690490055
129,susuman,62.7833,148.1667,6.77,90,100,1.25,RU,1690490005
130,ambatondrazaka,-17.8333,48.4167,12.8,90,28,2.21,MG,1690490055
131,oliver,49.1831,-119.5524,27.95,26,65,2.57,CA,1690490056
132,constantia,44.1833,28.65,16.5,82,30,7.3,RO,1690490056
133,changli,39.7042,119.1506,23.27,90,94,0.79,CN,1690490056
134,greymouth,-42.4667,171.2,3.61,79,42,3.34,NZ,1690490056
135,coronel dorrego,-38.7187,-61.2873,4.41,89,100,1.51,AR,1690490056
136,huarmey,-10.0681,-78.1522,22.88,69,6,5.55,PE,1690490056
137,frontera,26.9333,-101.45,36.86,27,40,5.14,MX,1690490056
138,ust-nera,64.5667,143.2,10.68,68,63,2.35,RU,1690490056
139,piney green,34.716,-77.3202,33.1,69,40,4.12,US,1690490056
140,kapuskasing,49.4169,-82.4331,26.05,65,75,8.75,CA,1690490056
141,rio preto da eva,-2.6994,-59.6997,34.05,40,87,1.32,BR,1690490057
142,gaspe,48.8334,-64.4819,25.12,65,20,4.12,CA,1690490057
143,port alfred,-33.5906,26.891,15.42,84,0,4.81,ZA,1690490057
144,morinville,53.8001,-113.652,13.89,87,75,4.12,CA,1690490057
145,taquaritinga do norte,-7.9031,-36.0442,19.56,84,53,3.69,BR,1690490057
146,elko,41.0002,-115.5012,31.2,12,62,7.6,US,1690490057
147,vernon,50.2581,-119.2691,28.2,26,99,1.54,CA,1690489924
148,ribeira grande,38.5167,-28.7,23.76,100,75,7.72,PT,1690490057
149,bodo,67.28,14.405,15.02,93,20,1.03,NO,1690489857
150,weno,7.4515,151.8468,27.84,76,91,5.14,FM,1690490057
151,palmer,42.1584,-72.3287,31.8,69,75,6.69,US,1690489971
152,garbahaarrey,3.3289,42.2209,26.25,54,100,10.21,SO,1690490058
153,kiunga,-6.1219,141.2906,22.34,99,95,1.35,PG,1690490058
154,hawaiian paradise park,19.5933,-154.9731,27.72,83,100,3.6,US,1690490058
155,nago,26.5881,127.9761,29.47,84,100,6.24,JP,1690490058
156,nemuro,43.3236,145.575,16.34,99,79,1.14,JP,1690490058
157,kristiansund,63.1115,7.732,15.03,88,75,3.6,NO,1690490058
158,sitka,57.0531,-135.33,17.94,72,0,0.0,US,1690490058
159,andovoranto,-18.95,49.1,18.39,82,93,2.65,MG,1690490058
160,fort bragg,35.139,-79.006,36.47,50,0,3.09,US,1690489966
161,buncrana,55.1333,-7.45,15.87,93,97,0.89,IE,1690490058
162,bantogon,6.5333,124.0333,26.33,77,100,2.39,PH,1690490059
163,papao,-17.75,-149.55,27.82,82,20,4.54,PF,1690490059
164,kaa-khem,51.6833,94.7333,17.24,66,98,1.64,RU,1690490059
165,tshikapa,-6.4167,20.8,24.26,29,7,0.97,CD,1690490059
166,nchelenge,-9.3451,28.734,19.43,50,12,1.93,ZM,1690490059
167,yambio,4.5721,28.3955,21.35,82,99,1.96,SS,1690489815
168,new norfolk,-42.7826,147.0587,12.72,81,87,3.85,AU,1690490059
169,khandyga,62.6667,135.6,13.8,52,2,2.65,RU,1690490059
170,patterson,37.4716,-121.1297,37.79,12,0,1.35,US,1690490059
171,al ghayzah,16.2079,52.176,25.0,88,95,6.73,YE,1690490059
172,arkhangel'sk,64.5401,40.5433,11.48,86,1,0.37,RU,1690490059
173,ta`u,-14.2336,-169.5144,26.23,69,43,6.23,AS,1690490060
174,hithadhoo,-0.6,73.0833,27.98,80,96,6.38,MV,1690490060
175,veragua arriba,19.5833,-70.3333,32.6,61,93,5.33,DO,1690490060
176,sayre,41.979,-76.5155,29.8,77,51,4.63,US,1690489858
177,pompeu,-19.2244,-44.9353,24.29,34,52,2.04,BR,1690490060
178,nova xavantina,-14.6667,-52.35,30.04,23,46,1.6,BR,1690490060
179,minas de marcona,-15.2119,-75.1103,17.6,58,0,5.3,PE,1690490060
180,progreso,21.2833,-89.6667,35.06,70,100,7.69,MX,1690490060
181,saint-francois,46.4154,3.9054,21.69,64,0,2.06,FR,1690490060
182,orchha,25.35,78.65,31.62,63,100,1.45,IN,1690490060
183,rio grande,-32.035,-52.0986,14.06,75,100,2.98,BR,1690490003
184,lubbock,33.6001,-101.8338,37.99,20,20,4.63,US,1690489933
185,weiz,47.2167,15.6167,17.29,74,100,1.38,AT,1690490060
186,papatowai,-46.5619,169.4708,5.53,86,97,2.97,NZ,1690490060
187,tuy hoa,13.0833,109.3,27.37,74,93,6.43,VN,1690490061
188,manokwari,-0.8667,134.0833,25.35,77,76,1.39,ID,1690490061
189,kamaishi,39.2667,141.8833,24.28,82,5,1.52,JP,1690490061
190,leninskoye,41.7589,69.3864,28.03,28,94,2.81,KZ,1690490061
191,ilica,39.9463,41.1091,12.96,71,0,2.57,TR,1690490061
192,east london,-33.0153,27.9116,15.69,81,0,3.24,ZA,1690490061
193,kasempa,-13.4584,25.8338,15.07,34,27,2.14,ZM,1690490062
194,port lincoln,-34.7333,135.8667,12.77,90,12,5.07,AU,1690490062
195,lihue,21.9789,-159.3672,28.77,69,0,7.72,US,1690490062
196,arroio grande,-32.2375,-53.0869,9.81,83,100,2.05,BR,1690490062
197,anadyr,64.75,177.4833,12.28,87,75,1.0,RU,1690490062
198,kegeyli shahar,42.7767,59.6078,29.05,35,3,4.36,UZ,1690490062
199,uturoa,-16.7333,-151.4333,26.55,78,2,4.08,PF,1690490063
200,laojunmiao,39.8333,97.7333,23.49,22,0,3.07,CN,1690490063
201,fisterra,42.9049,-9.2629,18.75,92,100,5.23,ES,1690490063
202,banda aceh,5.5577,95.3222,26.15,85,100,5.85,ID,1690490063
203,kirensk,57.7853,108.1119,16.25,96,95,0.85,RU,1690490063
204,college,64.8569,-147.8028,25.88,59,75,4.63,US,1690490064
205,vorgashor,67.5833,63.95,14.21,93,100,2.02,RU,1690490064
206,ringkobing,56.0901,8.244,14.45,81,100,3.97,DK,1690490064
207,madang,-5.2246,145.7966,23.94,92,52,2.33,PG,1690490064
208,jamestown,42.097,-79.2353,25.29,79,100,5.66,US,1690489788
209,torres,-29.3353,-49.7269,14.9,69,40,1.85,BR,1690490064
210,portland,45.5234,-122.6762,28.62,44,20,2.57,US,1690489446
211,gimbi,9.1667,35.8333,11.84,96,57,0.68,ET,1690490065
212,atafu village,-8.5421,-172.5159,27.88,79,20,7.3,TK,1690490065
213,anloga,5.7947,0.8973,25.1,90,100,5.76,GH,1690490065
214,lazaro cardenas,17.9583,-102.2,32.54,55,98,5.18,MX,1690490065
215,kapoeta,4.7717,33.5903,22.83,79,14,0.29,SS,1690490065
216,loushanguan,28.1375,106.82,21.2,96,100,0.79,CN,1690490065
217,mount gambier,-37.8333,140.7667,10.04,96,29,3.13,AU,1690490065
218,stornoway,58.2093,-6.3865,14.98,91,75,1.54,GB,1690490065
219,thurles,52.6819,-7.8022,17.44,84,93,2.25,IE,1690490065
220,dryden,49.7833,-92.7503,25.16,41,0,5.66,CA,1690490066
221,hadibu,12.65,54.0333,25.15,79,100,9.5,YE,1690490066
222,hinton,53.4001,-117.5857,13.31,85,98,0.28,CA,1690490066
223,hasaki,35.7333,140.8333,25.73,83,18,4.16,JP,1690490066
224,manston,50.95,-2.2667,18.64,96,95,2.33,GB,1690490066
225,luderitz,-26.6481,15.1594,12.71,80,0,1.59,NA,1690490066
226,bichura,50.5881,107.6022,13.0,92,58,1.56,RU,1690490066
227,yemva,62.59,50.8594,14.12,97,91,3.87,RU,1690490066
228,qalat,32.1058,66.9083,28.94,30,74,2.13,AF,1690490066
229,tolanaro,-25.0319,46.9987,18.04,72,20,5.14,MG,1690490067
230,ellsworth,44.5434,-68.4195,23.05,97,100,3.09,US,1690489878
231,copala,16.65,-98.9833,32.17,59,95,4.34,MX,1690490067
232,lebu,-37.6167,-73.65,12.49,89,100,1.45,CL,1690490067
233,ixtapa,20.7,-105.2,33.46,66,20,4.12,MX,1690490067
234,barabai,-2.5833,115.3833,21.04,90,49,1.22,ID,1690490067
235,el granada,37.5027,-122.4694,29.48,67,75,7.72,US,1690490067
236,alo,7.4178,6.7371,24.18,97,100,1.86,NG,1690490067
237,bad duben,51.5917,12.5849,17.59,99,100,5.68,DE,1690490067
238,klaksvik,62.2266,-6.589,12.51,94,100,5.88,FO,1690490067
239,talcahuano,-36.7167,-73.1167,13.82,77,75,2.57,CL,1690490068
240,kita,13.0349,-9.4895,22.6,92,92,4.74,ML,1690490068
241,kruisfontein,-34.0033,24.7314,10.91,92,0,1.29,ZA,1690490068
242,kapa'a,22.0752,-159.319,29.18,75,0,7.72,US,1690489913
243,klyuchi,52.2667,79.1667,18.8,66,100,2.6,RU,1690490068
244,lata,40.1629,-8.3327,14.89,93,2,1.11,PT,1690490068
245,plettenberg bay,-34.0527,23.3716,13.43,87,33,2.58,ZA,1690490068
246,meizhou,24.2977,116.1072,25.4,95,100,1.3,CN,1690490068
247,poyarkovo,49.6,128.6833,18.78,94,84,1.52,RU,1690490068
248,mocimboa,-11.3167,40.35,21.5,88,11,3.4,MZ,1690490068
249,badger,64.8,-147.5333,25.84,56,75,4.63,US,1690490069
250,la passe,45.5549,-0.8967,22.13,93,38,4.49,FR,1690490069
251,okhotsk,59.3833,143.3,15.11,90,99,2.81,RU,1690490069
252,fort st. john,56.2499,-120.8529,17.94,59,75,3.09,CA,1690490069
253,villers-cotterets,49.2531,3.09,18.69,97,100,3.87,FR,1690490069
254,gwadar,25.1216,62.3254,27.9,80,100,4.1,PK,1690490069
255,tete,-16.1564,33.5867,19.05,63,75,0.0,MZ,1690490069
256,guerrero negro,27.9769,-114.0611,29.97,41,6,5.13,MX,1690490069
257,xilin hot,43.9667,116.0333,18.49,79,100,2.85,CN,1690490069
258,deqen,29.9618,90.7188,8.81,93,90,0.41,CN,1690490069
259,linyi,35.0631,118.3428,23.67,98,63,2.8,CN,1690490069
260,murghob,38.1702,73.9667,11.78,59,99,3.32,TJ,1690490069
261,rosarito,32.3333,-117.0333,33.47,68,42,3.47,MX,1690490070
262,plouzane,48.3833,-4.6167,17.18,100,100,3.6,FR,1690490070
263,rahimah,26.7079,50.0619,33.12,53,99,1.0,SA,1690490070
264,zilair,52.2332,57.4392,19.02,63,34,1.52,RU,1690490070
265,fort saskatchewan,53.7168,-113.2187,14.56,82,75,4.12,CA,1690490070
266,galesong,-5.3166,119.3661,21.01,77,3,3.53,ID,1690490070
267,kirkwall,58.9848,-2.9587,13.31,92,100,7.53,GB,1690489876
268,barra de santo antonio,-9.4047,-35.5072,26.6,86,29,4.1,BR,1690490070
269,ivins,37.1686,-113.6794,40.64,13,0,2.68,US,1690490070
270,vilyuchinsk,52.9306,158.4028,12.15,93,100,0.74,RU,1690490070
271,potchefstroom,-26.7167,27.1,12.31,58,0,3.26,ZA,1690490070
272,mil'kovo,55.6078,37.7956,22.41,80,83,4.46,RU,1690490071
273,katabu,-4.9333,122.5167,22.02,95,33,1.69,ID,1690490071
274,talnakh,69.4865,88.3972,19.56,63,23,2.05,RU,1690490071
275,rivesaltes,42.7695,2.8724,25.61,88,20,2.57,FR,1690490071
276,mogok,22.9167,96.5,19.03,99,90,1.27,MM,1690490071
277,saudarkrokur,65.7461,-19.6394,9.71,83,13,4.78,IS,1690490071
278,tomah,43.9786,-90.504,33.73,52,0,6.69,US,1690489814
279,mount isa,-20.7333,139.5,12.87,94,40,0.0,AU,1690489840
280,old town,50.087,14.4202,17.23,87,0,7.72,CZ,1690490071
281,kelo,9.3086,15.8066,26.15,67,98,1.39,TD,1690490071
282,kununurra,-15.7667,128.7333,12.99,88,100,0.0,AU,1690490071
283,kutum,14.2,24.6667,24.46,57,97,1.28,SD,1690490071
284,happy valley-goose bay,53.3168,-60.3315,22.17,53,40,5.14,CA,1690489811
285,jutai,-5.1833,-68.9,34.52,38,91,1.31,BR,1690490072
286,at taj,24.2049,23.2857,31.88,11,100,3.16,LY,1690490072
287,burutu,5.3509,5.5076,25.61,86,100,3.58,NG,1690490072
288,keelung,25.1283,121.7419,29.49,84,100,17.21,TW,1690490072
289,berezovyy,51.6667,135.7,20.95,74,100,0.75,RU,1690490072
290,prado,-17.3411,-39.2208,22.03,80,79,2.83,BR,1690489900
291,mayya,61.7333,130.2811,10.62,70,26,1.36,RU,1690490072
292,sisimiut,66.9395,-53.6735,8.07,77,87,3.16,GL,1690490072
293,sinop,41.7711,34.8709,18.96,81,100,2.45,TR,1690490078
294,ulanhot,46.0833,122.0833,21.01,87,100,0.68,CN,1690490078
295,catumbela,-12.4314,13.5472,19.79,88,54,2.36,AO,1690490078
296,road town,18.4167,-64.6167,31.02,66,40,5.14,VG,1690490078
297,aroma,15.8167,36.1333,28.55,64,12,6.98,SD,1690490078
298,gulf shores,30.246,-87.7008,34.63,59,0,4.63,US,1690490078
299,prince rupert,54.3161,-130.3201,14.83,96,100,3.6,CA,1690490078
300,colonia,50.9333,6.95,18.36,89,75,3.6,DE,1690490078
301,guangyuan,32.442,105.823,21.01,96,73,1.82,CN,1690490078
302,floro,61.5996,5.0328,16.04,82,5,4.12,NO,1690490078
303,baltasi,56.3462,50.2062,18.65,85,6,2.71,RU,1690490078
304,sanctuary point,-35.1114,150.629,15.18,56,67,2.07,AU,1690490078
305,sandnessjoen,66.0217,12.6316,16.06,88,20,2.06,NO,1690490078
306,kerema,-7.9631,145.7785,24.42,91,97,1.37,PG,1690490079
307,tidjikja,18.5564,-11.4271,37.72,9,17,4.82,MR,1690490079
308,itaueira,-7.6033,-43.0256,29.35,29,2,2.44,BR,1690490079
309,idri,27.5,13.2667,34.46,11,0,3.68,LY,1690490079
310,st. john's,47.5649,-52.7093,23.66,79,100,7.72,CA,1690490079
311,charlestown,-32.95,151.6667,12.45,79,0,0.89,AU,1690490079
312,aasiaat,68.7098,-52.8699,3.54,87,78,1.61,GL,1690489897
313,miri,4.4148,114.0089,26.08,94,20,0.51,MY,1690490079
314,mapastepec,15.4333,-92.9,32.87,58,97,2.57,MX,1690490084
315,udachny,66.4167,112.4,16.92,51,93,1.27,RU,1690490084
316,tynda,55.1667,124.7167,15.92,98,100,0.71,RU,1690490084
317,alesund,62.4723,6.1549,16.61,92,75,3.09,NO,1690489972
318,paulden,34.8856,-112.4682,38.38,19,16,3.13,US,1690490084
319,vila franca do campo,37.7167,-25.4333,23.23,92,34,4.37,PT,1690490084
320,cartaya,37.2811,-7.1507,22.94,59,0,4.09,ES,1690489807
321,kendari,-3.945,122.4989,22.49,93,92,1.13,ID,1690490085
322,medicine hat,50.0501,-110.6683,24.29,38,75,3.6,CA,1690490085
323,fengcheng,40.4536,124.0717,22.51,99,100,1.55,CN,1690490086
324,pandan,14.0453,124.1694,27.63,79,98,4.66,PH,1690490087
325,port douglas,-16.4833,145.4667,21.86,81,92,5.61,AU,1690490059
326,vorkuta,67.5,64.0,14.48,94,100,1.94,RU,1690490087
327,port shepstone,-30.7414,30.455,17.43,86,1,1.6,ZA,1690490087
328,fortuna,40.5982,-124.1573,21.63,70,0,6.69,US,1690490087
329,kirkland lake,48.1446,-80.0377,26.16,53,42,2.06,CA,1690490088
330,moree,-29.4667,149.85,8.22,90,0,3.83,AU,1690490088
331,harper,4.375,-7.7169,24.69,90,90,4.45,LR,1690490088
332,bitkine,11.9801,18.2138,26.35,69,27,2.19,TD,1690490088
333,tangalle,6.024,80.7911,25.12,91,11,4.53,LK,1690490088
334,moab,38.5733,-109.5498,39.16,14,67,0.45,US,1690490089
335,nuriootpa,-34.4833,139.0,12.21,87,0,5.89,AU,1690490089
336,bac lieu,9.285,105.7244,26.24,86,100,5.51,VN,1690490089
337,al jawf,29.5,38.75,32.41,15,2,3.02,SA,1690490089
338,kill devil hills,36.0307,-75.676,33.01,64,0,7.2,US,1690490089
339,cuito,-12.3833,16.9333,16.18,36,95,1.38,AO,1690490089
340,zainsk,55.3195,52.0694,23.55,78,1,2.16,RU,1690490089
341,remire-montjoly,4.9167,-52.2667,28.02,78,100,0.0,GF,1690490089
342,lagoa,39.05,-27.9833,22.8,95,39,7.73,PT,1690490089
343,upata,8.0086,-62.3989,29.0,62,95,2.0,VE,1690490089
344,dzhambeyty,50.2536,52.595,28.38,37,0,3.29,KZ,1690490090
345,karratha,-20.7377,116.8463,17.95,53,0,3.95,AU,1690490090
346,monticello,45.3055,-93.7941,36.1,57,75,3.6,US,1690490090
347,maych'ew,12.7875,39.5422,17.01,72,67,2.25,ET,1690490090
348,cozumel,20.5083,-86.9458,33.04,70,40,6.17,MX,1690490090
349,longboat key,27.4125,-82.659,34.03,51,75,4.12,US,1690490078
350,tarko-sale,64.9225,77.785,18.32,81,100,1.91,RU,1690490090
351,puerto ayora,-0.7393,-90.3518,25.86,91,40,2.24,EC,1690490090
352,yaren,-0.5472,166.916,28.07,78,96,4.52,NR,1690490091
353,keflavik,64.0049,-22.5624,15.24,63,0,3.09,IS,1690490091
354,balsas,-7.5325,-46.0356,31.27,26,4,2.04,BR,1690490091
355,babu,24.4167,111.5167,25.36,92,28,1.19,CN,1690490091
356,parres,43.35,-5.15,19.74,91,88,0.26,ES,1690490091
357,mount pearl,47.5166,-52.7813,23.19,79,100,7.72,CA,1690490091
358,howrah,22.5892,88.3103,27.0,94,75,1.54,IN,1690490091
359,sabak bernam,3.7698,100.9879,24.28,96,100,1.25,MY,1690490091
360,shingu,33.7333,135.9833,25.46,86,18,1.36,JP,1690490091
361,lagos de moreno,21.35,-101.9167,26.27,25,7,1.26,MX,1690489854
362,baishishan,43.5833,127.5667,20.27,97,98,1.51,CN,1690490091
363,brandon,27.9378,-82.2859,32.86,73,75,4.12,US,1690490050
364,fale old settlement,-9.3852,-171.2468,28.04,75,6,7.57,TK,1690490091
365,prince george,53.9166,-122.753,16.69,88,75,1.54,CA,1690489675
366,chifeng,42.2683,118.9636,20.99,75,100,3.85,CN,1690490092
367,murray bridge,-35.1167,139.2667,13.4,81,0,3.07,AU,1690489839
368,isla vista,34.4133,-119.861,35.19,63,0,3.09,US,1690490015
369,vallenar,-28.5708,-70.7581,22.81,42,3,1.9,CL,1690490092
370,porto velho,-8.7619,-63.9039,35.03,43,0,2.57,BR,1690490092
371,posse,-14.0931,-46.3694,26.41,30,36,2.65,BR,1690490092
372,naantali,60.4674,22.0243,16.03,81,0,1.03,FI,1690490092
373,aibak,36.2647,68.0155,27.62,17,0,3.57,AF,1690490092
374,otjimbingwe,-22.35,16.1333,16.4,36,15,1.15,NA,1690490092
375,celano,42.0855,13.5398,15.49,74,0,1.48,IT,1690490092
376,sovetskaya gavan',48.9723,140.2878,20.21,82,100,0.96,RU,1690490092
377,mahajanga,-15.7167,46.3167,22.01,83,20,2.06,MG,1690490092
378,la'ie,21.6477,-157.9253,30.98,66,25,5.88,US,1690490092
379,kavieng,-2.5744,150.7967,27.24,82,67,5.47,PG,1690490092
380,labrador city,52.9463,-66.9114,13.95,67,75,6.69,CA,1690490093
381,westport,41.1415,-73.3579,34.86,62,0,4.12,US,1690489840
382,mutoko,-17.397,32.2268,10.79,71,0,1.03,ZW,1690490093
383,amethi,26.15,81.8167,31.21,63,100,3.62,IN,1690490093
384,amuntai,-2.4177,115.2494,21.1,93,50,0.88,ID,1690490093
385,miles city,46.4083,-105.8406,32.54,18,0,3.6,US,1690490093
386,guiyang,26.5833,106.7167,22.27,94,75,1.0,CN,1690490093
387,yorkton,51.2167,-102.4677,22.91,53,75,4.63,CA,1690490040
388,atyrau,47.1167,51.8833,25.01,50,0,2.0,KZ,1690490093
389,lautoka,-17.6167,177.4667,19.92,77,40,1.54,FJ,1690490024
390,akureyri,65.6835,-18.0878,9.96,81,75,4.12,IS,1690490098
391,zambezi,-13.5432,23.1047,15.46,34,27,2.59,ZM,1690490098
392,salinopolis,-0.6136,-47.3561,27.18,79,25,5.83,BR,1690490098
393,forster,-32.1667,152.5167,9.74,71,0,2.45,AU,1690490098
394,trincomalee,8.5711,81.2335,27.42,75,8,9.62,LK,1690490098
395,carnarvon,-24.8667,113.6333,14.57,66,0,6.45,AU,1690490099
396,glens falls north,43.3351,-73.6825,29.36,68,75,3.09,US,1690490099
397,griffith,41.5284,-87.4237,35.7,62,0,5.14,US,1690490099
398,pavlodar,52.3,76.95,15.89,94,89,3.0,KZ,1690490099
399,port saint john's,-31.6229,29.5448,16.16,87,0,1.48,ZA,1690490099
400,boguchany,58.3814,97.4531,15.09,94,97,0.76,RU,1690490099
401,debark',13.1561,37.8981,10.5,92,97,0.82,ET,1690490099
402,archangelos,36.2149,28.1149,27.39,62,0,4.91,GR,1690490099
403,zliten,32.4674,14.5687,26.45,71,0,2.91,LY,1690490099
404,melfi,40.9965,15.6514,20.31,56,1,1.57,IT,1690490099
405,sao gabriel da cachoeira,-0.1303,-67.0892,28.55,73,93,1.68,BR,1690489907
406,villa maria,-32.4075,-63.2402,17.68,39,73,2.92,AR,1690489824
407,cabo san lucas,22.8909,-109.9124,35.61,58,0,6.17,MX,1690490070
408,buchanan,5.8808,-10.0467,24.63,92,88,3.38,LR,1690490099
409,raja,8.4596,25.678,21.2,96,100,0.6,SS,1690490099
410,ancud,-41.8697,-73.8203,10.23,93,99,4.18,CL,1690490099
411,madalena,41.2162,-8.3345,18.59,75,42,0.94,PT,1690490100
412,freetown,8.484,-13.2299,25.62,88,78,3.39,SL,1690489922
413,sergach,55.5308,45.4661,20.45,90,36,2.19,RU,1690490100
414,suva,-18.1416,178.4415,20.71,78,75,2.57,FJ,1690489967
415,mossel bay,-34.1831,22.146,10.96,88,0,4.25,ZA,1690490100
416,port blair,11.6667,92.75,28.02,83,40,5.14,IN,1690490100
417,manismata,-2.4667,111.0333,21.02,98,98,1.24,ID,1690490100
418,taitung city,22.7583,121.1444,26.61,91,100,8.73,TW,1690490100
419,wewak,-3.5534,143.6268,24.72,92,95,2.61,PG,1690490100
420,kavaratti,10.5669,72.642,28.26,76,100,6.8,IN,1690490100
421,khagrachhari,23.1,91.9667,24.53,99,100,1.66,BD,1690490100
422,sake,-1.5736,29.045,19.82,53,94,0.97,CD,1690490100
423,kalmunai,7.4167,81.8167,26.75,76,3,3.14,LK,1690490100
424,khorugh,37.4897,71.553,18.86,32,1,2.12,TJ,1690490100
425,volksrust,-27.3654,29.8818,10.07,52,0,2.13,ZA,1690490101
426,choyr,46.3611,108.3611,17.45,51,97,2.47,MN,1690490101
427,tralee,52.2704,-9.7026,13.21,91,100,1.88,IE,1690490101
428,naze,28.3667,129.4833,27.51,86,79,5.85,JP,1690490101
429,noumea,-22.2763,166.4572,20.0,99,100,5.5,NC,1690489456
430,dampit,-8.2116,112.7493,17.5,94,36,1.97,ID,1690490101
431,usogorsk,63.4106,48.6872,15.29,98,100,4.42,RU,1690490101
432,murudeshwara,14.0943,74.4845,26.08,82,100,4.85,IN,1690490101
433,loughrea,53.1969,-8.5669,12.18,96,100,2.72,IE,1690490101
434,taoudenni,22.6783,-3.9836,41.18,16,35,3.28,ML,1690490102
435,alghero,40.5589,8.3181,23.05,68,0,2.06,IT,1690490102
436,crescent city,41.756,-124.2018,22.08,75,0,3.6,US,1690490102
437,kayangel,8.0823,134.7173,26.73,83,100,14.17,PW,1690490102
438,darnah,32.767,22.6367,26.57,81,0,9.07,LY,1690490102
439,sarangani,5.4033,125.4636,27.05,81,100,4.14,PH,1690490102
440,sabang,5.8933,95.3214,27.89,79,100,9.03,ID,1690490103
441,nema,57.5067,50.5011,16.44,93,6,2.84,RU,1690490103
442,haiku-pauwela,20.9219,-156.3051,28.98,61,20,10.29,US,1690490103
443,inirida,3.8653,-67.9239,28.11,88,100,0.06,CO,1690490103
444,ratnagiri,16.9833,73.3,25.48,89,100,5.07,IN,1690490103
445,slave lake,55.2834,-114.769,14.99,67,100,4.12,CA,1690489889
446,geraldton,-28.7667,114.6,8.23,100,40,3.09,AU,1690489842
447,kapit,2.0167,112.9333,22.56,91,52,0.56,MY,1690490104
448,dellys,36.9172,3.9131,27.39,75,45,2.33,DZ,1690490104
449,mongoumba,3.6415,18.5936,23.46,90,60,0.75,CF,1690490104
450,par naogaon,24.8029,88.9508,27.54,86,99,4.22,BD,1690490104
451,tomatlan,19.9333,-105.25,33.43,56,50,4.07,MX,1690490104
452,gazojak,41.1875,61.4036,30.22,27,24,3.49,TM,1690490109
453,neiafu,-18.65,-173.9833,20.38,94,100,0.0,TO,1690490110
454,lhasa,29.65,91.1,11.74,87,96,0.38,CN,1690490110
455,noyabrsk,63.1994,75.4507,15.43,94,5,3.48,RU,1690490110
456,miquelon,47.0975,-56.3814,19.0,95,100,6.66,PM,1690490110
457,aripuana,-9.1667,-60.6333,33.58,29,37,0.97,BR,1690490110
458,gadzhiyevo,69.2551,33.3362,9.48,96,80,0.96,RU,1690489996
459,panacan,9.2463,118.4082,27.11,77,100,4.44,PH,1690490111
460,jeddah,21.5169,39.2192,35.92,28,0,1.54,SA,1690490111
461,muynoq,43.7683,59.0214,26.09,49,0,3.73,UZ,1690490111
462,nadym,65.5333,72.5167,19.46,73,81,0.67,RU,1690490111
463,bonthe,7.5264,-12.505,25.07,91,35,3.51,SL,1690490111
464,dudinka,69.4058,86.1778,19.79,67,22,3.03,RU,1690490111
465,masuguru,-11.3667,38.4167,21.97,63,67,2.12,TZ,1690490111
466,tazovsky,67.4667,78.7,14.98,96,48,2.92,RU,1690490112
467,port moresby,-9.4431,147.1797,24.68,78,75,6.17,PG,1690489817
468,smithers,54.7804,-127.1743,15.18,77,100,1.03,CA,1690489675
469,qamdo,31.1667,97.2333,6.2,67,100,1.82,CN,1690490112
470,san antonio oeste,-40.7319,-64.9477,5.26,85,100,5.04,AR,1690490112
471,mbeni,-11.5014,43.3775,21.85,73,19,3.54,KM,1690490112
472,inongo,-1.95,18.2667,23.97,57,44,2.21,CD,1690490113
473,kabalo,-6.05,26.9167,24.85,32,14,1.42,CD,1690490113
474,dalandzadgad,43.5708,104.425,23.35,35,20,5.24,MN,1690490113
475,barda,40.3744,47.1267,25.6,65,0,3.14,AZ,1690490113
476,east ballina,-28.8667,153.5833,8.78,80,1,2.7,AU,1690490113
477,utrik,11.2278,169.8474,28.33,80,99,9.29,MH,1690490113
478,rabo de peixe,37.8,-25.5833,22.73,94,75,7.72,PT,1690490113
479,bikenibeu village,1.3673,173.1241,26.98,94,40,0.51,KI,1690490114
480,kumeny,58.1089,49.9161,15.65,93,10,3.1,RU,1690489940
481,nishinoomote,30.7333,131.0,27.68,85,98,5.52,JP,1690490114
482,antonina,-25.4286,-48.7119,19.82,1,100,0.81,BR,1690489869
483,demidov,55.2706,31.515,14.59,97,100,3.56,RU,1690490114
484,chonchi,-42.6128,-73.8092,10.62,95,97,1.06,CL,1690490114
485,beau vallon,-20.4189,57.6953,22.13,78,75,2.06,MU,1690490114
486,dolores,-36.3132,-57.6792,8.36,74,100,0.8,AR,1690490114
487,soufriere,13.8562,-61.0566,30.81,82,75,9.77,LC,1690490114
488,peniche,39.3558,-9.3811,20.16,87,54,4.67,PT,1690490115
489,victorica,-36.2151,-65.4359,13.24,44,86,3.5,AR,1690490115
490,san pedro pochutla,15.7333,-96.4667,34.84,51,95,3.9,MX,1690490115
491,bengkulu,-3.8004,102.2655,23.83,89,91,2.29,ID,1690490115
492,mwanga,-4.8,38.2,19.3,89,22,2.13,TZ,1690490115
493,chinde,26.8418,88.0763,18.77,89,89,1.52,NP,1690490115
494,la mure,44.9026,5.7866,16.3,61,13,1.9,FR,1690490115
495,undurkhaan,47.3194,110.6556,14.31,73,64,2.13,MN,1690490115
496,flin flon,54.7682,-101.865,12.91,76,100,4.12,CA,1690490115
497,kone,-21.0595,164.8658,19.76,50,98,2.13,NC,1690490115
498,tobelo,1.7284,128.0095,25.9,84,100,3.23,ID,1690490116
499,mancio lima,-7.6142,-72.8958,33.04,46,40,1.28,BR,1690490116
500,anolaima,4.8336,-74.4995,25.63,61,65,1.24,CO,1690490116
501,puerto baquerizo moreno,-0.9,-89.6,27.55,74,20,5.14,EC,1690489961
502,soure,-0.7167,-48.5233,26.92,80,31,6.0,BR,1690490116
503,ben gardane,33.1378,11.2197,26.79,66,0,5.31,TN,1690490116
504,fonte boa,-2.4959,-66.2662,33.56,43,57,1.69,BR,1690490116
505,james city,35.0888,-77.035,32.03,73,97,4.78,US,1690490116
506,aykhal,66.0,111.5,15.84,58,100,1.51,RU,1690490116
507,dalianwan,39.0286,121.695,26.02,89,40,4.0,CN,1690490117
508,mahibadhoo,3.7833,72.9667,28.21,70,85,0.88,MV,1690490117
509,tinajo,29.0788,-13.7081,23.49,64,40,8.75,ES,1690490117
510,opuwo,-18.0607,13.84,17.94,36,8,2.92,NA,1690490117
511,dondo,-19.6094,34.7431,18.73,84,0,2.2,MZ,1690490117
512,leon,21.1167,-101.6667,26.75,50,21,1.04,MX,1690489948
513,kerikeri,-35.2268,173.9474,10.51,92,15,4.18,NZ,1690490117
514,san felipe,10.3399,-68.7425,30.71,56,100,1.13,VE,1690490117
515,siofok,46.9041,18.058,18.85,62,32,3.19,HU,1690490117
516,acajutla,13.5928,-89.8275,31.41,58,96,3.3,SV,1690490117
517,codrington,-38.2667,141.9667,12.0,91,75,5.67,AU,1690490118
518,villa de soto,-30.8552,-64.9995,18.0,35,3,2.92,AR,1690490118
519,chadan,51.2833,91.5833,16.12,83,93,0.39,RU,1690490118
520,fort mcmurray,56.7268,-111.381,17.77,72,100,4.63,CA,1690490118
521,arauca,7.0847,-70.7591,25.0,100,96,2.57,CO,1690490118
522,ambo,-10.1308,-76.2047,22.18,55,15,4.84,PE,1690490118
523,baskale,38.0453,44.0172,16.95,52,31,1.14,TR,1690490118
524,pasni,25.2631,63.471,27.86,82,100,5.6,PK,1690490118
525,bayji,34.9311,43.487,36.1,14,0,4.69,IQ,1690490118
526,kiama,-34.6833,150.8667,15.32,67,63,2.68,AU,1690490118
527,carbonear,47.7332,-53.2148,23.91,85,100,4.73,CA,1690490119
528,pemangkat,1.1667,108.9667,25.23,88,87,4.84,ID,1690490119
529,broken hill,-31.95,141.4333,14.82,61,94,6.52,AU,1690489887
530,al bardiyah,31.7561,25.0865,26.68,81,0,7.0,LY,1690490119
531,turgen,43.4006,77.5933,24.07,50,72,3.5,KZ,1690490119
532,tazacorte,28.629,-17.9293,23.54,84,40,7.72,ES,1690490119
533,lower hutt,-41.2167,174.9167,8.95,94,100,14.4,NZ,1690490119
534,turaif,31.6725,38.6637,30.14,15,0,6.17,SA,1690490119
535,altamira,-3.2033,-52.2064,33.05,49,20,1.54,BR,1690489871
536,arraial do cabo,-22.9661,-42.0278,23.98,73,0,5.14,BR,1690490120
537,el bauga,18.262,33.9081,34.32,35,17,3.61,SD,1690490120
538,zhelezinka,53.54,75.3072,16.76,84,95,1.74,KZ,1690490120
539,mahdia,35.5047,11.0622,26.97,62,0,3.33,TN,1690490120
540,red bluff,40.1785,-122.2358,34.73,29,0,5.14,US,1690489824
541,thal,35.4791,72.2439,18.97,86,87,0.75,PK,1690490120
542,fereydun kenar,36.6864,52.5225,25.59,68,2,1.78,IR,1690490120
543,chigorodo,7.6664,-76.6811,29.2,84,83,1.93,CO,1690490120
544,margahayukencana,-6.9708,107.5675,19.2,85,97,1.46,ID,1690490120
545,hoi an,15.8794,108.335,27.98,73,100,3.62,VN,1690490121
546,kasongo-lunda,-6.4667,16.8167,24.58,39,40,0.65,CD,1690490121
547,lagos,6.5833,3.75,24.9,90,74,2.97,NG,1690489907
548,horta,38.5333,-28.6333,23.34,97,75,7.72,PT,1690490121
549,jiuquan,39.7432,98.5174,24.84,23,0,1.24,CN,1690490121
550,changzhi,35.2089,111.7386,23.94,77,100,0.77,CN,1690490121
551,malango,-2.9627,119.9001,16.69,96,33,0.94,ID,1690490121
552,egilsstadir,65.2653,-14.3948,7.95,87,75,7.2,IS,1690490121
553,cabedelo,-6.9811,-34.8339,26.37,85,4,6.0,BR,1690490121
554,el nido,11.1858,119.3956,28.16,77,84,8.91,PH,1690490121
555,masina,-4.3836,15.3914,26.19,47,74,1.63,CD,1690490121
556,nuku'alofa,-21.1333,-175.2,21.19,60,40,2.57,TO,1690490122
557,santa ines,-3.6667,-45.38,28.72,46,10,0.8,BR,1690490122
558,chistyye bory,58.3647,41.6278,16.08,87,80,2.26,RU,1690490122
559,zhangjiakou,40.81,114.8794,19.5,91,100,0.76,CN,1690490122
560,cole harbour,44.6724,-63.4751,25.66,82,100,6.69,CA,1690490122
561,magadan,59.5667,150.8,13.63,70,4,2.41,RU,1690490122
562,la sarre,48.8002,-79.1996,26.28,43,55,2.81,CA,1690490122
563,luganville,-15.5333,167.1667,23.04,81,100,6.13,VU,1690490122
564,melfort,52.8667,-104.6177,14.07,72,100,5.66,CA,1690490122
565,panadura,6.7132,79.9026,25.39,91,6,2.8,LK,1690490122
566,manicore,-5.8092,-61.3003,35.92,27,7,1.82,BR,1690490123
567,cidreira,-30.1811,-50.2056,13.04,70,68,3.36,BR,1690490123
568,inhambane,-23.865,35.3833,19.24,74,0,3.95,MZ,1690490123
569,thunder bay,48.4001,-89.3168,30.99,42,75,5.14,CA,1690489903
570,sampit,-2.5333,112.95,21.67,96,95,1.17,ID,1690490123
571,malpica,43.3228,-8.8105,22.09,85,97,5.46,ES,1690490123
572,isla mujeres,21.2311,-86.731,33.03,69,22,5.16,MX,1690490123
573,portage la prairie,49.9728,-98.2926,27.74,51,20,3.09,CA,1690490123
574,palpa,-14.5336,-75.1856,25.77,44,0,2.75,PE,1690490123
575,ubari,26.5921,12.7805,34.3,10,0,3.72,LY,1690490123
576,mesagne,40.5588,17.8083,24.14,50,0,2.57,IT,1690490124
577,lae,-6.7221,146.9847,22.37,94,100,1.37,PG,1690490124
578,mahina,-17.5065,-149.489,27.87,74,75,3.09,PF,1690490124
579,shizuishan,39.2333,106.7694,21.02,67,0,3.86,CN,1690490124
580,balqash,46.8481,74.995,22.61,53,77,5.92,KZ,1690490124
581,tofol,5.3248,163.0078,27.43,78,92,1.91,FM,1690490124
582,guiglo,6.5456,-7.4966,22.49,98,75,1.7,CI,1690490124
