City_ID,City,Lat,Lng,Max Temp,Humidity,Cloudiness,Wind Speed,Country,Date
0,ixtapa,20.7,-105.2,29.57,74,100,4.12,MX,1689729954
1,ilulissat,69.2167,-51.1,8.01,93,100,0.0,GL,1689729954
2,bethel,41.3712,-73.414,24.25,86,40,0.0,US,1689729954
3,keflavik,64.0049,-22.5624,10.24,81,0,6.17,IS,1689729954
4,gereida,11.2811,25.1414,26.03,65,84,5.26,SD,1689729955
5,port-aux-francais,-49.35,70.2167,3.19,72,61,14.34,TF,1689729955
6,show low,34.2542,-110.0298,27.16,35,0,0.45,US,1689729955
7,san jose del guaviare,2.5729,-72.6459,22.46,96,16,0.98,CO,1689729955
8,kingston,17.997,-76.7936,29.53,74,20,7.72,JM,1689729845
9,puerto natales,-51.7236,-72.4875,-1.63,85,100,0.83,CL,1689729955
10,college,64.8569,-147.8028,23.97,58,75,3.6,US,1689729955
11,adamstown,-25.066,-130.1015,21.64,80,68,2.17,PN,1689729955
12,yellowknife,62.456,-114.3525,25.29,41,75,2.06,CA,1689729921
13,maitum,6.0392,124.4986,26.58,74,100,0.99,PH,1689729955
14,georgetown,5.4112,100.3354,26.96,94,40,1.54,MY,1689729938
15,hithadhoo,-0.6,73.0833,27.82,72,98,3.57,MV,1689729955
16,talnakh,69.4865,88.3972,11.7,96,100,3.97,RU,1689729956
17,jiazi,22.8779,116.067,27.1,88,100,4.01,CN,1689729956
18,luderitz,-26.6481,15.1594,15.42,75,0,11.06,NA,1689729956
19,chartres,48.4167,1.5,17.31,73,100,1.34,FR,1689729956
20,blackmans bay,-43.0167,147.3167,9.07,68,82,1.73,AU,1689729956
21,norilsk,69.3535,88.2027,12.0,93,100,4.39,RU,1689729805
22,iskateley,67.6803,53.1512,16.71,87,64,1.16,RU,1689729956
23,island harbour,50.724,-1.2758,16.75,90,81,0.89,GB,1689729956
24,severo-yeniseyskiy,60.3725,93.0408,16.9,55,100,0.33,RU,1689729956
25,havelock,34.8791,-76.9013,28.86,90,0,3.09,US,1689729957
26,waitangi,-43.9535,-176.5597,14.9,76,1,0.89,NZ,1689729957
27,general ramirez,-32.176,-60.2008,4.79,71,23,3.48,AR,1689729957
28,eureka,40.8021,-124.1637,19.0,80,2,2.24,US,1689729957
29,bandarbeyla,9.4942,50.8122,24.19,77,11,11.65,SO,1689729922
30,tucuma,-0.1833,-50.05,24.97,87,1,3.39,BR,1689729957
31,lerwick,60.1545,-1.1494,12.0,82,100,8.4,GB,1689729957
32,new norfolk,-42.7826,147.0587,9.72,62,100,1.23,AU,1689729957
33,kodiak,57.79,-152.4072,15.73,82,40,2.57,US,1689729957
34,whitehorse,60.7161,-135.0538,15.43,72,100,6.17,CA,1689729872
35,tual,-5.6667,132.75,26.42,81,39,8.68,ID,1689729958
36,margaret river,-33.95,115.0667,9.94,80,96,12.39,AU,1689729958
37,ushuaia,-54.8,-68.3,2.81,70,0,2.06,AR,1689729958
38,susuman,62.7833,148.1667,23.24,28,11,1.43,RU,1689729958
39,kailua-kona,19.6406,-155.9956,29.98,78,40,4.63,US,1689729788
40,collie,-33.3667,116.15,8.2,86,100,5.29,AU,1689729958
41,bredasdorp,-34.5322,20.0403,8.45,83,8,5.26,ZA,1689729958
42,hammerfest,70.6634,23.6821,9.25,100,100,4.63,NO,1689729959
43,yingchuan,34.1628,113.4639,28.33,67,100,2.06,CN,1689729959
44,mar del plata,-38.0023,-57.5575,7.75,78,0,2.57,AR,1689729703
45,piti village,13.4626,144.6933,31.03,77,20,5.14,GU,1689729959
46,crane,31.3974,-102.3501,37.34,14,0,8.44,US,1689729959
47,aberystwyth,52.4155,-4.0829,15.39,96,100,2.62,GB,1689729959
48,aasiaat,68.7098,-52.8699,3.78,98,100,3.18,GL,1689729959
49,porto novo,6.4965,2.6036,26.9,90,100,3.45,BJ,1689729959
50,portland,45.5234,-122.6762,31.49,35,0,6.69,US,1689729827
51,choibalsan,48.0667,114.5,21.36,47,100,5.9,MN,1689729959
52,albany,42.6001,-73.9662,22.25,94,37,1.88,US,1689729824
53,stanley,54.868,-1.6985,11.96,94,20,0.51,GB,1689729960
54,atafu village,-8.5421,-172.5159,28.2,76,100,4.53,TK,1689729960
55,buenaventura,3.8801,-77.0312,25.29,95,56,0.7,CO,1689729669
56,masterton,-40.9597,175.6575,13.27,66,13,5.34,NZ,1689729960
57,iqaluit,63.7506,-68.5145,6.85,100,100,1.54,CA,1689729960
58,lompoc,34.6391,-120.4579,31.12,73,20,3.09,US,1689729960
59,dunedin,-45.8742,170.5036,12.88,60,100,4.74,NZ,1689729960
60,grytviken,-54.2811,-36.5092,-1.62,84,37,3.65,GS,1689729960
61,inirida,3.8653,-67.9239,24.27,92,100,0.16,CO,1689729960
62,qaqortoq,60.7167,-46.0333,9.29,100,100,2.18,GL,1689729961
63,hadibu,12.65,54.0333,24.74,81,74,11.35,YE,1689729724
64,sharm el-sheikh,27.8518,34.305,30.08,48,0,1.03,EG,1689729961
65,olonkinbyen,70.9221,-8.7187,4.72,93,100,5.98,SJ,1689729961
66,san patricio,28.017,-97.5169,32.87,67,0,7.11,US,1689729705
67,sovetskaya gavan',48.9723,140.2878,25.18,60,62,2.38,RU,1689729961
68,deniliquin,-35.5333,144.9667,10.48,56,6,1.93,AU,1689729961
69,niort,46.3333,-0.3333,14.54,87,41,0.45,FR,1689729961
70,nusaybin,37.0778,41.2178,29.68,18,0,2.46,TR,1689729961
71,hawaiian paradise park,19.5933,-154.9731,27.73,85,100,5.14,US,1689729962
72,saint-philippe,-21.3585,55.7679,20.77,78,42,6.21,RE,1689729962
73,utrik,11.2278,169.8474,28.4,81,89,7.42,MH,1689729963
74,ghadamis,30.1337,9.5007,30.38,23,0,4.74,LY,1689729963
75,tiksi,71.6872,128.8694,9.56,64,93,9.3,RU,1689729963
76,brigantine,39.4101,-74.3646,26.67,88,0,1.34,US,1689729963
77,san carlos del zulia,9.0,-71.9135,27.26,70,33,1.44,VE,1689729963
78,dalnerechensk,45.9339,133.7225,24.17,83,62,1.87,RU,1689729963
79,corowa,-36.0333,146.3833,6.9,97,50,0.47,AU,1689729797
80,tura,25.5198,90.2201,25.29,91,99,1.72,IN,1689729964
81,anadyr,64.75,177.4833,19.28,72,40,6.0,RU,1689729964
82,tolanaro,-25.0319,46.9987,20.04,94,40,8.23,MG,1689729964
83,novoorsk,51.381,58.9813,16.36,86,35,2.55,RU,1689729964
84,jamestown,42.097,-79.2353,18.8,68,0,0.0,US,1689729723
85,udachny,66.4167,112.4,19.66,57,17,9.03,RU,1689729965
86,madang,-5.2246,145.7966,28.09,75,100,0.61,PG,1689729965
87,cooper's town,26.8667,-77.5167,29.55,74,34,5.69,BS,1689729965
88,ribeira grande,38.5167,-28.7,21.54,79,100,0.45,PT,1689729965
89,haiku-pauwela,20.9219,-156.3051,30.01,60,20,13.89,US,1689729965
90,saint-pierre,-21.3393,55.4781,20.82,78,0,7.72,RE,1689729804
91,enewetak,11.3474,162.3373,28.61,76,39,5.97,MH,1689729965
92,papatowai,-46.5619,169.4708,12.63,62,100,4.32,NZ,1689729966
93,edinburgh of the seven seas,-37.0676,-12.3116,15.37,94,100,8.76,SH,1689729966
94,ocos,14.5094,-92.1933,27.1,70,100,1.05,GT,1689729966
95,tazovsky,67.4667,78.7,14.06,78,32,3.7,RU,1689729966
96,fale old settlement,-9.3852,-171.2468,28.44,74,100,5.19,TK,1689729967
97,okhotsk,59.3833,143.3,24.65,41,1,3.14,RU,1689729967
98,cabo san lucas,22.8909,-109.9124,33.67,48,0,6.17,MX,1689729377
99,oranjemund,-28.55,16.4333,12.84,90,12,7.91,NA,1689729968
100,wailua homesteads,22.0669,-159.378,29.44,68,75,10.29,US,1689729968
101,usogorsk,63.4106,48.6872,17.13,80,9,1.31,RU,1689729968
102,arroio grande,-32.2375,-53.0869,6.65,73,85,0.46,BR,1689729968
103,el nido,11.1858,119.3956,28.77,71,95,3.35,PH,1689729800
104,puerto ayora,-0.7393,-90.3518,25.31,92,24,1.34,EC,1689729762
105,la palma,33.8464,-118.0467,36.62,55,0,4.63,US,1689729968
106,isna,25.2934,32.554,31.01,18,0,2.58,EG,1689729969
107,port mathurin,-19.6833,63.4167,23.49,77,99,10.59,MU,1689729969
108,cockburn town,21.4612,-71.1419,28.51,86,96,8.86,TC,1689729969
109,alofi,-19.0595,-169.9187,23.94,60,40,7.72,NU,1689729969
110,praia da vitoria,38.7333,-27.0667,19.86,88,75,2.31,PT,1689729858
111,sitka,57.0531,-135.33,14.94,88,100,1.54,US,1689729969
112,invercargill,-46.4,168.35,13.29,61,100,3.45,NZ,1689729763
113,eyl,7.9803,49.8164,24.78,73,80,10.53,SO,1689729969
114,san antonio de pale,-1.4014,5.6325,23.52,88,100,5.24,GQ,1689729761
115,limassol,34.675,33.0333,29.54,73,0,2.06,CY,1689729970
116,nemuro,43.3236,145.575,14.41,93,93,2.05,JP,1689729970
117,vilyuchinsk,52.9306,158.4028,18.22,74,14,0.57,RU,1689729970
118,guiuan,11.0333,125.7247,27.76,77,100,4.2,PH,1689729970
119,togur,58.3631,82.8265,18.93,65,5,0.88,RU,1689729970
120,callao,-12.0667,-77.15,21.16,73,0,6.17,PE,1689729731
121,ciudad lazaro cardenas,17.9583,-102.2,29.75,72,100,3.01,MX,1689729970
122,longyearbyen,78.2186,15.6401,7.91,81,75,0.51,SJ,1689729970
123,bartlesville,36.7473,-95.9808,33.34,60,0,2.57,US,1689729684
124,inongo,-1.95,18.2667,21.62,72,65,2.51,CD,1689729971
125,staplehurst,51.1611,0.5525,17.04,41,100,2.45,GB,1689729971
126,bilibino,68.0546,166.4372,24.71,49,6,1.74,RU,1689729971
127,kavaratti,10.5669,72.642,27.97,78,96,9.71,IN,1689729971
128,kurumkan,54.3,110.3,18.61,55,4,1.12,RU,1689729971
129,harstad,68.799,16.5293,11.66,97,100,1.34,NO,1689729971
130,katsuura,35.1333,140.3,28.53,76,100,6.72,JP,1689729971
131,remire-montjoly,4.9167,-52.2667,26.02,83,0,1.03,GF,1689729971
132,vizinga,61.0749,50.1031,16.24,82,100,0.77,RU,1689729971
133,yung shue wan,22.2333,114.1167,29.89,82,100,0.89,HK,1689729971
134,ust-nera,64.5667,143.2,23.29,41,86,3.4,RU,1689729972
135,afaahiti,-17.75,-149.2833,26.93,80,3,9.56,PF,1689729972
136,nova sintra,14.8667,-24.7167,22.78,77,61,7.14,CV,1689729972
137,vorgashor,67.5833,63.95,15.9,85,96,2.35,RU,1689729972
138,zambezi,-13.5432,23.1047,10.38,54,0,1.74,ZM,1689729972
139,nuzvid,16.7833,80.85,25.47,89,100,6.04,IN,1689729972
140,alice springs,-23.7,133.8833,17.75,45,1,3.6,AU,1689729972
141,isafjordur,66.0755,-23.124,9.72,78,93,0.3,IS,1689729973
142,castillos,-34.1667,-53.8333,6.9,75,100,2.09,UY,1689729973
143,thompson,55.7435,-97.8558,21.09,52,20,4.12,CA,1689729973
144,happy valley-goose bay,53.3168,-60.3315,25.17,50,20,2.06,CA,1689729973
145,abbiategrasso,45.4008,8.9185,26.88,83,42,0.83,IT,1689729973
146,naze,28.3667,129.4833,30.51,73,21,4.62,JP,1689729973
147,palikir - national government center,6.9248,158.1611,31.41,66,100,3.6,FM,1689729973
148,port hedland,-20.3167,118.5667,23.03,33,1,4.63,AU,1689729974
149,quellon,-43.1167,-73.6167,7.14,93,100,2.57,CL,1689729974
150,pundong,-7.9522,110.3486,25.17,70,0,6.38,ID,1689729974
151,avarua,-21.2078,-159.775,24.03,60,75,5.14,CK,1689729974
152,la passe,45.5549,-0.8967,17.77,82,0,4.5,FR,1689729974
153,chulakkurgan,43.765,69.1814,24.1,39,0,4.07,KZ,1689729974
154,saiha,22.4833,92.9667,23.68,94,22,0.72,IN,1689729974
155,flying fish cove,-10.4217,105.6791,25.82,78,75,7.72,CX,1689729974
156,newport,51.5877,-2.9984,16.3,90,44,2.97,GB,1689729974
157,port elizabeth,-33.918,25.5701,13.39,68,100,13.77,ZA,1689729975
158,itoman,26.1247,127.6694,31.43,74,20,4.12,JP,1689729975
159,kozluk,38.1938,41.4885,20.14,23,0,4.8,TR,1689729975
160,fort wellington,6.4,-57.6,25.99,85,2,3.28,GY,1689729975
161,seeb,23.6703,58.1891,32.05,79,0,4.12,OM,1689729501
162,bubaque,11.2833,-15.8333,27.14,80,100,5.11,GW,1689729975
163,gebeit,21.0667,36.3167,30.5,18,9,1.07,SD,1689729975
164,ta`u,-14.2336,-169.5144,26.37,81,93,8.87,AS,1689729976
165,numan,9.4667,12.0333,26.73,75,44,3.58,NG,1689729976
166,persembe,41.0656,37.7714,19.68,82,0,2.61,TR,1689729976
167,sanya,18.2431,109.505,31.09,74,20,5.0,CN,1689729976
168,puerto baquerizo moreno,-0.9,-89.6,25.03,81,92,4.72,EC,1689729976
169,kindu,-2.95,25.95,23.89,45,13,0.84,CD,1689729976
170,pirot,43.1531,22.5861,20.05,68,0,0.9,RS,1689729976
171,carnarvon,-24.8667,113.6333,18.8,77,100,9.85,AU,1689729976
172,punta arenas,-53.15,-70.9167,2.05,82,100,3.06,CL,1689729863
173,norton,-17.8833,30.7,7.01,56,0,2.51,ZW,1689729977
174,west island,-12.1568,96.8225,25.99,83,75,6.69,CC,1689729977
175,makassar,-5.14,119.4221,29.03,65,20,2.06,ID,1689729977
176,fort bragg,35.139,-79.006,29.91,70,0,3.09,US,1689729874
177,klyuchi,52.2667,79.1667,20.73,52,100,3.47,RU,1689729977
178,hobyo,5.3505,48.5268,24.8,83,86,9.99,SO,1689729977
179,andovoranto,-18.95,49.1,19.23,89,35,3.6,MG,1689729977
180,sao joao da barra,-21.6403,-41.0511,20.85,92,80,2.76,BR,1689729977
181,fort mcmurray,56.7268,-111.381,24.77,46,0,1.03,CA,1689729926
182,wawa,9.9022,4.4192,22.24,93,100,4.47,NG,1689729734
183,oban,56.4127,-5.4706,7.43,88,77,1.13,GB,1689729978
184,icano,-28.9193,-65.3282,8.84,67,96,4.3,AR,1689729978
185,patong,7.8961,98.2966,28.08,82,100,10.29,TH,1689729978
186,tindouf,27.6711,-8.1474,31.25,37,15,7.2,DZ,1689729978
187,kiunga,-6.1219,141.2906,24.34,86,100,1.46,PG,1689729979
188,torre del lago puccini,43.8281,10.2912,24.5,88,0,1.54,IT,1689729979
189,kosh-agach,50.0,88.6667,16.57,54,0,0.67,RU,1689729980
190,vilyuysk,63.7553,121.6247,17.24,55,100,2.91,RU,1689729980
191,saudarkrokur,65.7461,-19.6394,5.2,89,50,1.25,IS,1689729980
192,walvis bay,-22.9575,14.5053,11.53,93,0,1.54,NA,1689729980
193,sittwe,20.15,92.9,27.04,87,73,5.57,MM,1689729980
194,ed damer,17.5928,33.9592,34.33,12,93,4.2,SD,1689729980
195,chonchi,-42.6128,-73.8092,6.73,98,100,3.21,CL,1689729981
196,sola,-13.8833,167.55,25.7,83,56,10.03,VU,1689729981
197,weno,7.4515,151.8468,29.97,79,100,3.09,FM,1689729981
198,bardai,11.65,7.2333,23.17,78,98,3.69,NG,1689729981
199,vernon,50.2581,-119.2691,29.4,30,17,1.03,CA,1689729981
200,kurtamysh,54.9103,64.4319,15.01,96,24,3.91,RU,1689729981
201,vila do maio,15.1333,-23.2167,25.44,78,100,4.99,CV,1689729981
202,smara,26.7384,-11.6719,24.13,68,5,5.03,EH,1689729982
203,nova vicosa,-17.8919,-39.3719,21.73,88,0,3.58,BR,1689729982
204,hastings,50.8552,0.5729,17.29,32,100,4.45,GB,1689729982
205,hakha,22.65,93.6167,19.15,85,8,0.02,MM,1689729982
206,lihue,21.9789,-159.3672,29.77,67,75,10.29,US,1689729982
207,axim,4.8699,-2.2405,24.54,91,70,4.25,GH,1689729982
208,alibag,18.6411,72.8792,28.04,94,100,8.08,IN,1689729983
209,bamboo flat,11.7,92.7167,29.05,79,75,5.66,IN,1689729983
210,malvan,16.0667,73.4667,25.7,89,100,8.6,IN,1689729983
211,tsiombe,-25.3,45.4833,17.7,83,0,2.35,MG,1689729700
212,mundybash,53.211,87.2983,19.1,66,98,0.91,RU,1689729983
213,el porvenir,13.7617,-87.3458,27.63,58,86,2.53,HN,1689729983
214,manvi,15.9833,77.05,21.86,91,100,5.94,IN,1689729983
215,ponta pora,-22.5361,-55.7256,12.24,75,91,1.48,BR,1689729984
216,ilha de mocambique,-15.0342,40.7358,22.9,79,14,6.35,MZ,1689729984
217,belmonte,-15.8631,-38.8828,22.17,79,4,2.3,BR,1689729984
218,abqaiq,25.9371,49.6776,32.41,24,2,2.17,SA,1689729984
219,mount isa,-20.7333,139.5,22.87,43,80,6.17,AU,1689729984
220,kidal,18.4411,1.4078,32.97,27,44,4.27,ML,1689729797
221,beau vallon,-20.4189,57.6953,23.13,78,75,5.14,MU,1689729985
222,wusong,30.95,117.7833,26.69,89,100,0.87,CN,1689729985
223,ribeira brava,32.65,-17.0667,22.62,73,46,1.88,PT,1689729985
224,petrolina,-9.3986,-40.5008,26.03,47,0,2.57,BR,1689729985
225,tughyl,47.7252,84.2063,21.48,52,0,0.47,KZ,1689729985
226,barvinkove,48.9097,37.0205,17.43,90,78,3.37,UA,1689729985
227,uklana,29.5167,75.8667,28.45,77,92,3.87,IN,1689729986
228,micheweni,-4.9667,39.8333,24.57,79,8,5.86,TZ,1689729986
229,staryye ozinki,51.1786,49.6769,16.93,85,6,4.35,RU,1689729986
230,dodge city,37.7528,-100.0171,33.68,59,0,7.2,US,1689729986
231,gorontalo,0.5412,123.0595,27.96,77,100,1.05,ID,1689729986
232,guerrero negro,27.9769,-114.0611,22.67,70,6,8.85,MX,1689729986
233,dudinka,69.4058,86.1778,10.48,88,100,3.44,RU,1689729986
234,ancud,-41.8697,-73.8203,11.17,89,100,12.44,CL,1689729986
235,dali,25.7,100.1833,21.02,54,100,1.34,CN,1689729987
236,makar'yev,57.8797,43.8069,15.53,87,99,2.49,RU,1689729987
237,balabac,7.9868,117.0645,29.16,68,43,4.02,PH,1689729987
238,ponta delgada,37.7333,-25.6667,19.4,82,20,2.06,PT,1689729987
239,pimenta bueno,-11.6725,-61.1936,23.87,42,10,1.73,BR,1689729987
240,port alfred,-33.5906,26.891,13.99,79,100,6.26,ZA,1689729987
241,san julian,21.0167,-102.1667,23.61,33,13,1.4,MX,1689729988
242,inarajan village,13.2736,144.7484,31.08,82,100,5.08,GU,1689729988
243,vadso,70.0744,29.7487,14.09,94,100,1.03,NO,1689729988
244,port lincoln,-34.7333,135.8667,13.83,63,94,8.4,AU,1689729988
245,petropavlovsk-kamchatsky,53.0452,158.6483,17.63,75,15,2.16,RU,1689729988
246,kuanda,56.3161,116.0806,11.77,94,100,2.48,RU,1689729988
247,chui,-33.6971,-53.4616,6.97,78,100,2.34,UY,1689729988
248,al kharijah,25.4514,30.5464,30.83,20,0,3.35,EG,1689729988
249,villa madero,19.4,-101.2667,16.1,88,100,2.12,MX,1689729565
250,boulder city,35.9786,-114.8325,43.36,10,0,7.2,US,1689729989
251,mooloolaba,-26.6833,153.1167,22.95,65,17,4.25,AU,1689729837
252,colares,38.7992,-9.4469,19.43,79,3,7.44,PT,1689729989
253,puerto el triunfo,13.2833,-88.55,29.01,66,100,3.21,SV,1689729989
254,hamilton,39.1834,-84.5333,25.24,85,75,1.54,US,1689729959
255,puerto santa,-8.9906,-78.6456,21.05,79,77,5.36,PE,1689729989
256,morondava,-20.2833,44.2833,21.37,63,0,2.49,MG,1689729990
257,namibe,-15.1961,12.1522,19.58,54,0,2.15,AO,1689729990
258,leamington,42.0549,-82.6062,23.28,55,2,1.79,CA,1689729970
259,maumere,-8.6199,122.2111,26.27,73,45,3.86,ID,1689729990
260,tateyama,34.9833,139.8667,27.11,84,100,7.12,JP,1689729990
261,uturoa,-16.7333,-151.4333,26.8,75,10,8.6,PF,1689729991
262,metlili chaamba,32.2667,3.6333,31.52,12,0,0.0,DZ,1689729991
263,lazaro cardenas,17.9583,-102.2,29.75,72,100,3.01,MX,1689729991
264,zhezqazghan,47.7833,67.7667,19.32,52,0,3.0,KZ,1689729913
265,constitucion,-35.3333,-72.4167,12.92,59,100,2.0,CL,1689729991
266,gadzhiyevo,69.2551,33.3362,13.42,82,72,2.89,RU,1689729992
267,sao paulo de olivenca,-3.3783,-68.8725,25.5,78,92,0.7,BR,1689729992
268,novodvinsk,64.4165,40.8122,15.49,80,100,1.73,RU,1689729992
269,east ballina,-28.8667,153.5833,20.44,60,0,5.31,AU,1689729992
270,touros,-5.1989,-35.4608,24.08,87,15,5.64,BR,1689729992
271,east london,-33.0153,27.9116,15.89,72,100,10.94,ZA,1689729925
272,bikenibeu village,1.3673,173.1241,31.98,66,75,3.09,KI,1689729992
273,tahla,34.0485,-4.428,30.32,32,94,0.5,MA,1689729993
274,buala,-8.145,159.5921,29.05,74,100,3.76,SB,1689729993
275,lorengau,-2.0226,147.2712,29.28,66,93,2.22,PG,1689729993
276,salgado,-11.0319,-37.475,23.39,97,34,1.29,BR,1689729993
277,ariquemes,-9.9133,-63.0408,25.59,45,27,1.28,BR,1689729993
278,cooma,-36.2333,149.1333,7.28,48,5,3.93,AU,1689729994
279,mtwara,-10.2667,40.1833,23.14,82,14,5.7,TZ,1689729994
280,kodinsk,58.6881,99.1844,20.32,45,5,0.44,RU,1689729994
281,alo,7.4178,6.7371,24.34,96,100,1.43,NG,1689729994
282,howrah,22.5892,88.3103,29.0,84,40,2.57,IN,1689729994
283,aykhal,66.0,111.5,18.68,58,11,10.05,RU,1689729995
284,prado,-17.3411,-39.2208,21.73,86,0,2.98,BR,1689729995
285,itamaraca,-7.7478,-34.8256,26.03,84,9,5.13,BR,1689729995
286,bahia honda,22.9036,-83.1592,27.71,85,16,4.03,CU,1689729995
287,starotitarovskaya,45.2136,37.1439,23.26,78,44,4.99,RU,1689729995
288,berdigestyakh,62.0989,126.6992,17.13,55,35,3.34,RU,1689729995
289,ishimbay,53.4545,56.0415,13.07,94,21,1.87,RU,1689729995
290,cannonvale,-20.2833,148.7,20.66,66,6,7.63,AU,1689729996
291,nizhneudinsk,54.9076,99.0276,17.85,62,14,2.23,RU,1689729996
292,as sulayyil,20.4607,45.5779,28.14,9,69,2.7,SA,1689729996
293,ust'-ordynskiy,52.805,104.7508,18.21,67,12,1.02,RU,1689729996
294,aras-asan,8.8908,126.3033,24.42,92,100,2.82,PH,1689729996
295,roxas,11.5853,122.7511,27.3,73,100,1.57,PH,1689729996
296,tamanrasset,22.785,5.5228,25.95,14,0,1.54,DZ,1689729996
297,mercedes,-34.6515,-59.4307,5.48,82,6,3.41,AR,1689729941
298,gevas,38.2968,43.1083,16.78,68,0,0.5,TR,1689729996
299,yeppoon,-23.1333,150.7333,23.88,60,0,3.97,AU,1689729996
300,kendari,-3.945,122.4989,27.32,74,15,0.53,ID,1689729996
301,muroto-misakicho,33.2833,134.15,27.57,87,99,8.62,JP,1689729996
302,sorong,-0.8833,131.25,27.69,80,82,6.57,ID,1689729731
303,kununurra,-15.7667,128.7333,26.99,32,67,6.17,AU,1689729997
304,puerto armuelles,8.2833,-82.8667,27.99,87,94,3.12,PA,1689729897
305,kerikeri,-35.2268,173.9474,15.51,82,80,0.89,NZ,1689729997
306,simanggang,1.2472,111.4528,28.99,84,20,0.51,MY,1689729997
307,olinda,-8.0089,-34.8553,25.85,89,75,4.63,BR,1689729997
308,ukholovo,53.7929,40.4892,13.21,87,94,7.81,RU,1689729997
309,kingscliff,-28.2667,153.5667,22.65,52,0,5.14,AU,1689729997
310,bom jardim,-7.7958,-35.5872,19.34,97,8,2.22,BR,1689729997
311,selfoss,63.9331,-20.9971,7.8,70,95,3.54,IS,1689729997
312,fuerte olimpo,-21.0415,-57.8738,13.68,55,48,2.89,PY,1689729998
313,atherton,53.5237,-2.4935,14.68,96,100,0.6,GB,1689729998
314,thoen,17.6129,99.2161,26.21,88,100,1.22,TH,1689729998
315,tarfaya,27.9358,-12.9218,21.48,93,7,6.75,MA,1689729998
316,kizel,59.0471,57.6477,17.35,100,100,1.39,RU,1689729998
317,mawlaik,23.6333,94.4167,28.88,77,3,0.54,MM,1689729999
318,hirara,24.8,125.2833,31.92,79,75,4.12,JP,1689729999
319,constantia,44.1833,28.65,21.38,59,72,2.96,RO,1689729937
320,troitskoye,52.9821,84.6757,20.26,66,80,2.93,RU,1689729999
321,jabor,5.921,169.6434,28.09,81,100,3.88,MH,1689729999
322,manado,1.487,124.8455,31.43,62,20,4.12,ID,1689729999
323,geraldton,-28.7667,114.6,16.23,59,97,9.77,AU,1689729999
324,genhe,50.7833,121.5167,24.0,65,98,1.66,CN,1689729999
325,arraial do cabo,-22.9661,-42.0278,21.33,90,100,1.93,BR,1689729999
326,akjoujt,19.6969,-14.4164,32.49,43,100,1.44,MR,1689729999
327,midvagur,62.0511,-7.1939,8.46,87,100,11.83,FO,1689729999
328,klaksvik,62.2266,-6.589,8.51,83,100,12.46,FO,1689730000
329,mugia,43.1041,-9.2179,18.28,81,5,5.78,ES,1689730000
330,carbonear,47.7332,-53.2148,23.75,88,94,4.3,CA,1689730000
331,ola,59.5833,151.2833,19.5,62,5,0.61,RU,1689730000
332,badger,64.8,-147.5333,23.93,57,75,3.6,US,1689730000
333,praia,14.9215,-23.5087,25.3,73,20,5.14,CV,1689730000
334,nenjiang,49.1833,125.2167,28.63,46,2,4.27,CN,1689730000
335,la'ie,21.6477,-157.9253,30.98,71,3,3.58,US,1689730000
336,grootfontein,-19.5667,18.1167,6.76,39,0,1.54,NA,1689730000
337,mosjoen,65.836,13.1908,11.29,82,100,1.03,NO,1689730000
338,lejanias,3.5251,-74.0216,20.38,95,9,2.34,CO,1689730001
339,nuku'alofa,-21.1333,-175.2,24.19,57,20,6.69,TO,1689730001
340,san juan de uraba,8.7592,-76.5297,26.96,85,95,1.8,CO,1689730001
341,la ronge,55.1001,-105.2842,19.14,59,75,3.6,CA,1689729830
342,nar'yan-mar,67.6713,53.087,16.75,86,61,1.15,RU,1689730001
343,qamdo,31.1667,97.2333,8.03,67,100,1.97,CN,1689730001
344,yoichi,43.2039,140.7703,21.25,76,40,2.31,JP,1689730001
345,nuuk,64.1835,-51.7216,10.34,93,100,3.09,GL,1689730001
346,vanimo,-2.6741,141.3028,29.4,68,27,2.12,PG,1689730001
347,hermanus,-34.4187,19.2345,10.45,75,50,8.04,ZA,1689730001
348,berezovyy,51.6667,135.7,32.5,29,45,1.01,RU,1689730001
349,mccook,40.2019,-100.6257,25.25,83,0,4.12,US,1689730002
350,cill airne,52.05,-9.5167,13.32,96,90,2.28,IE,1689730002
351,palmares do sul,-30.2578,-50.5097,11.08,66,100,3.25,BR,1689730002
352,road town,18.4167,-64.6167,29.05,79,40,5.66,VG,1689730002
353,barro alto,-11.7608,-41.9117,17.72,61,0,2.15,BR,1689730002
354,rio grande,-32.035,-52.0986,4.97,65,79,4.04,BR,1689730002
355,cintalapa de figueroa,16.7333,-93.7167,22.64,83,35,2.7,MX,1689730002
356,papao,-17.75,-149.55,27.82,76,0,10.42,PF,1689730002
357,boende,-0.2167,20.8667,24.03,80,100,1.19,CD,1689730002
358,witu,-2.3889,40.4382,25.09,83,14,5.39,KE,1689730002
359,adigrat,14.277,39.462,15.06,87,93,2.15,ET,1689730002
360,newman,37.3138,-121.0208,42.19,10,99,5.33,US,1689730002
361,arno,60.1167,18.6333,12.53,82,53,3.11,SE,1689730003
362,fort st. john,56.2499,-120.8529,18.94,52,75,5.66,CA,1689729823
363,kavieng,-2.5744,150.7967,27.75,80,64,3.88,PG,1689730003
364,codrington,-38.2667,141.9667,9.98,68,21,3.98,AU,1689729748
365,revda,56.801,59.9303,13.46,97,87,1.64,RU,1689730003
366,buka,40.8108,69.1986,24.23,43,1,2.13,UZ,1689730003
367,phan rang-thap cham,11.5667,108.9833,30.45,60,99,3.59,VN,1689730003
368,banda aceh,5.5577,95.3222,27.4,81,99,6.51,ID,1689730003
369,tandalti,13.0167,31.8667,29.76,52,100,6.43,SD,1689730003
370,st. john's,47.5649,-52.7093,23.49,93,75,8.75,CA,1689729976
371,n'zeto,-7.2312,12.8666,21.5,89,99,0.55,AO,1689730003
372,orapa,-21.2833,25.3667,10.6,38,0,3.7,BW,1689730004
373,fortuna,40.5982,-124.1573,16.48,81,20,5.14,US,1689730004
374,sao jose do campestre,-6.3156,-35.7139,22.43,85,36,4.12,BR,1689729929
375,loboc,9.6383,124.0348,25.63,89,100,2.04,PH,1689730004
376,carutapera,-1.195,-46.02,24.7,88,6,2.46,BR,1689730004
377,pyt-yakh,60.7499,72.8582,18.97,77,100,2.97,RU,1689730004
378,torghay,49.6339,63.4981,20.38,63,9,4.04,KZ,1689730004
379,el granada,37.5027,-122.4694,25.5,80,100,9.77,US,1689730005
380,shubarkuduk,49.1447,56.4872,17.75,78,24,5.73,KZ,1689730005
381,nyaungdon,17.0333,95.65,26.73,83,100,4.63,MM,1689730005
382,polyarnyy,69.1989,33.4478,13.36,82,55,3.1,RU,1689730005
383,salinopolis,-0.6136,-47.3561,25.78,87,9,4.83,BR,1689730005
384,parthenay,46.6667,-0.4167,13.86,94,100,3.21,FR,1689730005
385,kapuskasing,49.4169,-82.4331,16.05,72,75,3.09,CA,1689730005
386,santa teresa di riva,37.947,15.3677,29.14,52,0,4.77,IT,1689730005
387,barabai,-2.5833,115.3833,28.45,69,19,0.31,ID,1689730005
388,monett,36.929,-93.9277,32.12,67,0,3.6,US,1689730005
389,sorsk,54.0033,90.2467,17.72,64,100,1.59,RU,1689730006
390,massawa,15.6097,39.45,33.13,58,88,1.01,ER,1689730006
391,jonage,45.7964,5.0453,26.89,65,0,3.6,FR,1689730006
392,armacao de buzios,-22.7469,-41.8817,20.03,92,100,1.83,BR,1689729924
393,margate,51.3813,1.3862,16.5,75,100,1.34,GB,1689730006
394,kruisfontein,-34.0033,24.7314,12.16,70,99,11.49,ZA,1689730006
395,chauk,20.8833,94.8167,28.01,72,18,5.63,MM,1689730006
396,saddiqabad,28.3062,70.1307,32.77,55,45,4.95,PK,1689730006
397,chibougamau,49.9168,-74.3659,16.79,77,75,1.95,CA,1689730006
398,wang sai phun,16.3885,100.538,24.77,93,100,1.85,TH,1689730006
399,arkhangel'sk,64.5401,40.5433,15.5,76,100,1.84,RU,1689730007
400,taro,-8.3862,115.28,23.0,84,58,2.21,ID,1689730007
401,tonning,54.3167,8.95,14.99,79,100,0.53,DE,1689730007
402,rantauprapat,2.1,99.8333,24.5,94,100,0.81,ID,1689730007
403,narsimhapur,22.95,79.2,26.95,85,66,0.52,IN,1689730007
404,mount gambier,-37.8333,140.7667,8.8,64,11,3.97,AU,1689730007
405,smithers,54.7804,-127.1743,20.18,45,75,2.57,CA,1689730007
406,taoudenni,22.6783,-3.9836,35.93,23,15,4.26,ML,1689730007
407,shasta lake,40.6804,-122.3708,38.4,12,0,0.45,US,1689730007
408,itaueira,-7.6033,-43.0256,25.68,39,8,3.79,BR,1689730007
409,barcelos,41.5388,-8.6151,18.25,92,0,0.63,PT,1689730007
410,mejit,10.2753,170.8646,28.31,81,100,4.76,MH,1689730007
411,port moresby,-9.4431,147.1797,29.68,58,20,5.14,PG,1689730007
412,coracora,-15.0333,-73.7833,12.11,39,3,1.78,PE,1689729795
413,vyalikaya byerastavitsa,53.196,24.0166,12.02,78,17,1.89,BY,1689730008
414,umba,66.6871,34.3429,11.71,89,86,1.6,RU,1689730008
415,szczecinek,53.7079,16.6994,13.36,72,100,2.07,PL,1689730008
416,sarupathar,26.1984,93.8094,27.34,85,100,0.53,IN,1689729578
417,barra de santo antonio,-9.4047,-35.5072,22.6,85,9,3.41,BR,1689730008
418,kirensk,57.7853,108.1119,19.06,58,14,0.72,RU,1689730008
419,whakatane,-37.9585,176.9854,17.16,60,33,2.7,NZ,1689730008
420,caconda,-13.7333,15.0667,10.79,32,0,0.51,AO,1689730008
421,tabarka,36.9544,8.758,30.36,30,40,3.6,TN,1689730008
422,masuguru,-11.3667,38.4167,20.46,80,43,1.37,TZ,1689730008
423,bulawayo,-20.15,28.5833,8.52,48,0,2.13,ZW,1689730008
424,beykonak,36.3257,30.303,29.11,40,0,2.93,TR,1689730008
425,rosario oeste,-14.8361,-56.4275,24.04,50,100,1.94,BR,1689730009
426,shingu,33.7333,135.9833,31.14,61,35,5.35,JP,1689730009
427,saipan,15.1355,145.701,31.39,100,75,5.14,MP,1689730009
428,rikaze,29.25,88.8833,11.84,72,100,0.82,CN,1689730009
429,wenling,28.3669,121.36,29.25,78,100,2.92,CN,1689730009
430,bryne,58.7354,5.6477,13.32,85,100,4.63,NO,1689730009
431,mpika,-11.8343,31.4529,10.25,73,6,2.17,ZM,1689730009
432,nata,8.3333,-80.5167,25.93,86,100,4.92,PA,1689730009
433,ulsteinvik,62.3432,5.8487,12.64,89,100,6.26,NO,1689730009
434,chhoti sadri,24.3833,74.7,26.36,82,100,0.55,IN,1689730009
435,kalmunai,7.4167,81.8167,26.35,66,100,2.6,LK,1689730009
436,qianzhou,28.3167,109.7167,22.97,99,100,1.0,CN,1689729733
437,nantucket,41.2835,-70.0995,25.03,99,100,4.12,US,1689729823
438,saint-denis,48.9167,2.3333,20.64,61,0,4.12,FR,1689730010
439,al muwayh,22.4333,41.7583,28.74,20,95,3.26,SA,1689730010
440,burabay,53.0838,70.3138,17.18,92,100,1.13,KZ,1689730010
441,baneh,35.9975,45.8853,18.58,56,0,3.0,IR,1689730010
442,laguna,38.421,-121.4238,37.4,36,0,6.17,US,1689729884
443,nizhniye sergi,56.6614,59.3033,13.23,98,45,1.75,RU,1689730010
444,qarqaraly,49.4058,75.4742,22.46,38,15,3.37,KZ,1689730010
445,miranda,3.2499,-76.2281,25.07,64,55,3.56,CO,1689730010
446,hasaki,35.7333,140.8333,31.22,76,100,3.25,JP,1689730010
447,colonia,50.9333,6.95,16.64,75,0,0.51,DE,1689730011
448,khorugh,37.4897,71.553,20.06,42,2,1.34,TJ,1689730011
449,brisas de zicatela,15.8369,-97.0419,30.29,54,75,0.0,MX,1689730011
450,vila franca do campo,37.7167,-25.4333,19.23,84,100,1.82,PT,1689730011
451,coquimbo,-29.9533,-71.3436,16.85,67,0,4.63,CL,1689730011
452,mil'kovo,55.6078,37.7956,14.27,94,100,7.51,RU,1689729723
453,port-cartier,50.0334,-66.8654,19.3,97,100,2.49,CA,1689730011
454,shimanovsk,52.0,127.7,28.53,41,0,3.61,RU,1689730011
455,mbekenyera,-10.0,38.9833,18.46,90,73,1.4,TZ,1689730011
456,prince george,53.9166,-122.753,23.47,36,75,2.57,CA,1689729720
457,yutan,28.25,112.55,26.25,93,100,2.15,CN,1689730012
458,madalena,41.2162,-8.3345,17.48,94,6,1.19,PT,1689730012
459,det udom,14.906,105.0784,26.9,91,100,2.58,TH,1689730012
460,prince rupert,54.3161,-130.3201,16.05,85,100,9.77,CA,1689730012
461,big spring,32.2504,-101.4787,39.25,10,0,6.69,US,1689729848
462,huadian,42.9633,126.7478,25.15,76,5,0.53,CN,1689730012
463,labuan,5.2767,115.2417,27.2,83,20,0.51,MY,1689730012
464,kyzyl-mazhalyk,51.1333,90.6,19.46,55,7,1.02,RU,1689730012
465,ringkobing,56.0901,8.244,12.79,71,100,4.77,DK,1689730013
466,murun-kuren,49.6342,100.1625,17.05,71,36,2.37,MN,1689730014
467,oulu,65.0124,25.4682,14.06,38,75,2.57,FI,1689729933
468,ambanja,-13.6833,48.45,19.31,66,0,1.81,MG,1689730014
469,varzea da palma,-17.5981,-44.7308,24.13,39,67,1.19,BR,1689730014
470,siracusa,37.0881,15.2792,26.84,70,0,3.77,IT,1689729902
471,santa cruz de yojoa,14.9833,-87.9,22.4,94,39,1.21,HN,1689730014
472,ghat,24.9647,10.1728,28.89,21,0,1.81,LY,1689730014
473,medicine hat,50.0501,-110.6683,24.55,34,20,6.17,CA,1689730014
474,borogontsy,62.6683,131.1683,19.26,56,92,4.03,RU,1689730015
475,horta,38.5333,-28.6333,21.12,79,100,0.45,PT,1689730015
476,howard springs,-12.497,131.047,28.79,32,76,5.69,AU,1689730015
477,nogliki,51.8333,143.1667,14.39,82,99,3.69,RU,1689730015
478,kolda,12.8833,-14.95,24.45,95,100,1.65,SN,1689730015
479,nabire,-3.3667,135.4833,28.79,68,13,1.95,ID,1689730015
480,kapa'a,22.0752,-159.319,30.18,67,75,10.29,US,1689730015
481,hoa binh,20.8133,105.3383,25.1,97,100,0.98,VN,1689729759
482,palmer,42.1584,-72.3287,22.75,91,40,2.06,US,1689729981
483,port douglas,-16.4833,145.4667,23.65,65,9,4.9,AU,1689730015
484,batang,-6.4846,110.7083,26.78,64,0,3.44,ID,1689730016
485,soio,-6.1349,12.3689,21.19,91,29,0.58,AO,1689730016
486,homer,59.6425,-151.5483,20.93,70,40,6.17,US,1689730016
487,cudillero,43.5622,-6.1459,20.37,88,100,2.06,ES,1689730016
488,kolonia town,6.964,158.206,32.0,66,100,3.6,FM,1689730016
489,kita,13.0349,-9.4895,26.85,65,100,0.13,ML,1689730016
490,qulsary,46.9531,54.0198,21.91,59,17,4.13,KZ,1689730016
491,neufchatel-en-bray,49.7332,1.4396,15.87,90,97,2.67,FR,1689730016
492,san fernando,15.0286,120.6898,28.85,71,7,1.54,PH,1689730016
493,serenje,-13.2325,30.2352,9.05,72,0,2.22,ZM,1689730016
494,sinop,41.7711,34.8709,16.6,49,0,1.49,TR,1689730017
495,tofol,5.3248,163.0078,28.73,71,99,4.88,FM,1689730017
496,port macquarie,-31.4333,152.9167,15.98,52,0,6.09,AU,1689729445
497,iquique,-20.2208,-70.1431,18.02,78,54,0.81,CL,1689729802
498,terme,41.2092,36.9739,15.96,78,3,2.14,TR,1689730017
499,magistral'nyy,56.1725,107.4458,18.72,55,7,1.05,RU,1689730017
500,asan,36.7836,127.0042,26.9,80,60,1.56,KR,1689730017
501,el charco,2.4769,-78.1105,25.93,87,35,1.24,CO,1689730017
502,opuwo,-18.0607,13.84,13.02,23,0,2.57,NA,1689730017
503,edgewater,28.9889,-80.9023,27.08,89,100,4.29,US,1689730018
504,fujin,47.26,132.0322,25.06,70,91,1.27,CN,1689729954
505,salekhard,66.53,66.6019,18.64,67,66,2.86,RU,1689730018
506,northport,33.229,-87.5772,31.18,77,0,0.0,US,1689730018
507,acarau,-2.8856,-40.12,26.23,79,9,7.29,BR,1689730018
508,rongelap,11.1635,166.8941,28.43,74,51,5.65,MH,1689730018
509,port saint john's,-31.6229,29.5448,17.56,87,24,6.69,ZA,1689730019
510,sinabang,2.4803,96.3801,26.71,80,86,0.15,ID,1689730019
511,paphos,34.7667,32.4167,22.88,43,0,3.09,CY,1689730019
512,santyoku,37.4406,129.1708,23.99,87,53,3.07,KR,1689730019
513,dese,11.1333,39.6333,14.67,77,97,2.28,ET,1689730019
514,yangshuo,24.7808,110.4897,28.13,82,37,2.07,CN,1689730019
515,kroya,-7.6331,109.2461,24.53,79,22,5.54,ID,1689730019
516,paracuru,-3.41,-39.0306,27.84,75,7,6.21,BR,1689729931
517,erdenet,49.0333,104.0833,12.87,86,98,0.29,MN,1689730019
518,amga,60.8953,131.9608,20.11,60,42,2.53,RU,1689730020
519,panjab,34.388,67.0233,11.39,52,0,2.85,AF,1689730020
520,richards bay,-28.783,32.0377,16.71,41,0,1.71,ZA,1689730020
521,holualoa,19.6228,-155.9522,27.91,79,40,4.63,US,1689730020
522,dryden,49.7833,-92.7503,19.16,59,0,0.0,CA,1689729981
523,sayan,-11.1361,-77.1933,21.77,57,56,0.62,PE,1689730020
524,sinan,34.8262,126.1086,27.06,93,18,6.19,KR,1689730020
525,pindushi,62.9152,34.58,14.21,79,100,1.75,RU,1689730020
526,takab,36.4009,47.1133,15.47,74,0,1.47,IR,1689729935
527,ketchikan,55.3422,-131.6461,15.99,94,100,6.17,US,1689730020
528,novyy,45.0072,38.9819,20.62,71,20,3.0,RU,1689730020
529,'ain el melh,34.8415,4.1638,28.84,17,1,1.92,DZ,1689730020
530,trinidad,-14.8333,-64.9,22.25,57,18,3.44,BO,1689730021
531,sabang,5.8933,95.3214,28.32,81,100,10.92,ID,1689730021
532,beatrice,40.2681,-96.747,23.05,88,0,2.06,US,1689730021
533,lebu,-37.6167,-73.65,10.5,82,100,6.82,CL,1689730021
534,esfarayen,37.0765,57.5101,18.81,67,79,3.34,IR,1689730021
535,judenburg,47.1667,14.6667,15.22,95,49,1.93,AT,1689730021
536,nadi,-17.8,177.4167,28.0,57,40,5.66,FJ,1689730021
537,marsh harbour,26.5412,-77.0636,29.35,74,27,6.52,BS,1689730021
538,ghanzi,-21.5667,21.7833,9.98,29,0,2.25,BW,1689730021
539,mossel bay,-34.1831,22.146,10.96,75,87,9.02,ZA,1689730022
540,miquelon,47.0975,-56.3814,17.0,99,100,5.56,PM,1689730022
541,kaiapoi,-43.3783,172.6401,17.19,39,34,2.57,NZ,1689730022
542,kollam,8.8833,76.6,25.94,88,100,5.24,IN,1689729894
543,darnah,32.767,22.6367,25.86,80,0,6.62,LY,1689730022
544,yeraliyev,43.2,51.65,23.2,72,5,5.43,KZ,1689730023
545,gaspe,48.8334,-64.4819,22.12,88,75,1.54,CA,1689729890
546,monrovia,6.3005,-10.7969,24.87,85,99,4.39,LR,1689729455
547,tadine,-21.55,167.8833,22.34,69,100,5.75,NC,1689730023
548,escarcega,18.6089,-90.7454,30.34,58,91,3.31,MX,1689730023
549,grand falls-windsor,48.9332,-55.6649,23.61,86,12,3.65,CA,1689730023
550,murzuq,25.9155,13.9184,28.54,23,0,4.25,LY,1689730023
551,tostado,-29.232,-61.7692,7.77,63,0,3.52,AR,1689730024
552,zaraza,9.3503,-65.3245,23.79,94,42,1.72,VE,1689730024
553,talara,-4.5772,-81.2719,24.42,83,0,5.66,PE,1689730024
554,sidi slimane,34.2648,-5.926,25.6,60,49,2.92,MA,1689730024
555,yaren,-0.5472,166.916,26.62,87,100,7.51,NR,1689730025
556,ayancik,41.9447,34.5861,22.45,43,0,1.68,TR,1689730025
557,ouled mimoun,34.9047,-1.0339,21.01,16,0,3.1,DZ,1689730026
558,szarvas,46.8667,20.55,22.22,62,67,1.81,HU,1689730026
559,amal,59.051,12.7049,13.15,73,72,6.14,SE,1689729921
