City_ID,City,Lat,Lng,Max Temp,Humidity,Cloudiness,Wind Speed,Country,Date
0,bethel,41.3712,-73.414,20.93,86,0,0.0,US,1690006686
1,waitangi,-43.9535,-176.5597,12.12,92,100,4.02,NZ,1690006692
2,blackmans bay,-43.0167,147.3167,13.07,84,96,2.55,AU,1690006695
3,yellowknife,62.456,-114.3525,19.29,48,100,3.09,CA,1690006690
4,yangiobod,41.1192,70.0941,31.45,18,0,2.86,UZ,1690006874
5,grytviken,-54.2811,-36.5092,-2.03,82,78,5.89,GS,1690006695
6,talnakh,69.4865,88.3972,26.23,39,95,3.53,RU,1690006719
7,iskateley,67.6803,53.1512,12.46,87,99,5.93,RU,1690006734
8,patong,7.8961,98.2966,29.08,77,100,7.85,TH,1690006874
9,myitkyina,25.3833,97.4,34.26,56,91,0.72,MM,1690006874
10,college,64.8569,-147.8028,25.97,55,20,2.06,US,1690006704
11,constantia,44.1833,28.65,26.5,66,2,8.12,RO,1690006446
12,cape coast,5.1053,-1.2466,23.87,92,97,4.35,GH,1690006874
13,kerikeri,-35.2268,173.9474,14.39,85,99,1.41,NZ,1690006706
14,ilulissat,69.2167,-51.1,4.01,100,40,0.0,GL,1690006695
15,kodiak,57.79,-152.4072,14.73,77,0,2.06,US,1690006719
16,port mathurin,-19.6833,63.4167,23.16,74,81,9.86,MU,1690006686
17,uige,-7.6087,15.0613,17.03,88,19,0.99,AO,1690006875
18,port-aux-francais,-49.35,70.2167,0.68,96,100,1.05,TF,1690006691
19,shimanovsk,52.0,127.7,27.92,28,95,2.66,RU,1690006875
20,wailua homesteads,22.0669,-159.378,26.44,81,40,5.66,US,1690006713
21,utrik,11.2278,169.8474,28.16,78,79,6.61,MH,1690006696
22,mount gambier,-37.8333,140.7667,11.09,91,91,3.56,AU,1690006689
23,albany,42.6001,-73.9662,18.13,92,1,2.87,US,1690006558
24,coquimbo,-29.9533,-71.3436,11.85,100,0,2.06,CL,1690006613
25,san giorgio del sannio,41.0696,14.8522,30.67,53,0,2.65,IT,1690006875
26,dudinka,69.4058,86.1778,26.46,61,63,3.35,RU,1690006728
27,moyale,3.5167,39.0584,20.57,67,98,8.16,KE,1690006875
28,nova vicosa,-17.8919,-39.3719,21.44,69,60,5.28,BR,1690006875
29,puerto ayora,-0.7393,-90.3518,24.65,81,98,4.8,EC,1690006692
30,pathein,16.7833,94.7333,30.21,71,84,2.72,MM,1690006719
31,puerto natales,-51.7236,-72.4875,-2.96,91,100,0.45,CL,1690006691
32,ulladulla,-35.35,150.4667,14.16,57,21,3.06,AU,1690006876
33,lashio,22.9333,97.75,28.68,74,75,0.45,MM,1690006876
34,waingapu,-9.6567,120.2641,28.58,49,63,7.99,ID,1690006876
35,huarmey,-10.0681,-78.1522,19.53,87,28,4.2,PE,1690006759
36,adamstown,-25.066,-130.1015,20.85,68,39,11.81,PN,1690006694
37,weno,7.4515,151.8468,25.97,100,100,1.54,FM,1690006720
38,east london,-33.0153,27.9116,18.52,55,0,5.66,ZA,1690006709
39,alesund,62.4723,6.1549,15.18,83,40,3.6,NO,1690006876
40,margaret river,-33.95,115.0667,16.03,62,18,3.5,AU,1690006704
41,holualoa,19.6228,-155.9522,25.91,85,75,6.17,US,1690006877
42,olonkinbyen,70.9221,-8.7187,5.76,79,99,2.61,SJ,1690006688
43,yarmouth,41.7057,-70.2286,22.2,95,100,1.79,US,1690006877
44,invercargill,-46.4,168.35,4.04,82,6,2.38,NZ,1690006694
45,fisterra,42.9049,-9.2629,17.08,82,35,6.35,ES,1690006877
46,bilibino,68.0546,166.4372,24.2,45,67,2.03,RU,1690006705
47,port lincoln,-34.7333,135.8667,13.14,70,88,8.36,AU,1690006695
48,port douglas,-16.4833,145.4667,23.73,64,15,3.65,AU,1690006741
49,petropavlovsk-kamchatsky,53.0452,158.6483,23.33,60,0,3.0,RU,1690006732
50,saint-philippe,-21.3585,55.7679,22.28,85,83,6.46,RE,1690006707
51,edinburgh of the seven seas,-37.0676,-12.3116,12.84,75,99,10.0,SH,1690006695
52,kill devil hills,36.0307,-75.676,25.01,77,0,0.0,US,1690006877
53,marianna,30.7744,-85.2269,28.31,89,75,0.0,US,1690006877
54,aripuana,-9.1667,-60.6333,19.7,53,0,0.79,BR,1690006706
55,mata-utu,-13.2816,-176.1745,28.16,80,76,4.48,WF,1690006878
56,gadzhiyevo,69.2551,33.3362,9.94,75,98,8.44,RU,1690006728
57,tiksi,71.6872,128.8694,12.03,62,44,7.05,RU,1690006699
58,iqaluit,63.7506,-68.5145,4.85,100,75,0.0,CA,1690006696
59,seydi,39.4816,62.9137,36.69,14,0,9.7,TM,1690006878
60,tangalle,6.024,80.7911,30.88,61,80,8.04,LK,1690006878
61,rio grande,-32.035,-52.0986,16.64,89,96,6.16,BR,1690006878
62,avarua,-21.2078,-159.775,20.03,88,75,2.57,CK,1690006712
63,tura,25.5198,90.2201,28.65,84,93,0.98,IN,1690006718
64,dilling,12.05,29.65,24.99,76,98,7.08,SD,1690006878
65,simanggang,1.2472,111.4528,32.99,62,40,2.68,MY,1690006879
66,hammerfest,70.6634,23.6821,10.25,76,100,5.66,NO,1690006879
67,west island,-12.1568,96.8225,25.99,83,75,7.2,CC,1690006716
68,praia da vitoria,38.7333,-27.0667,20.42,100,20,1.22,PT,1690006742
69,afaahiti,-17.75,-149.2833,21.93,64,36,5.06,PF,1690006711
70,ribeira grande,38.5167,-28.7,19.87,88,40,3.58,PT,1690006691
71,ramapuram,13.1167,79.2,32.0,46,100,8.6,IN,1690006879
72,hawaiian paradise park,19.5933,-154.9731,25.73,92,100,1.54,US,1690006700
73,port isabel,26.0734,-97.2086,29.02,84,20,4.63,US,1690006879
74,ushuaia,-54.8,-68.3,-2.19,69,40,5.14,AR,1690006698
75,rusape,-18.5278,32.1284,12.56,79,89,3.55,ZW,1690006880
76,bredasdorp,-34.5322,20.0403,6.87,68,100,2.0,ZA,1690006696
77,tual,-5.6667,132.75,26.4,76,34,8.54,ID,1690006880
78,awjilah,29.1081,21.2869,30.92,33,0,1.96,LY,1690006880
79,vila franca do campo,37.7167,-25.4333,19.23,88,46,1.84,PT,1690006880
80,hithadhoo,-0.6,73.0833,28.11,74,98,2.63,MV,1690006745
81,smithers,54.7804,-127.1743,14.18,94,75,0.0,CA,1690006741
82,jamestown,42.097,-79.2353,15.95,98,0,0.45,US,1690006517
83,uliastay,47.7417,96.8444,23.46,30,36,3.19,MN,1690006880
84,tucuma,-0.1833,-50.05,23.7,89,21,2.87,BR,1690006880
85,torres,-29.3353,-49.7269,19.9,93,32,3.03,BR,1690006773
86,uturoa,-16.7333,-151.4333,24.6,64,17,6.04,PF,1690006693
87,imbituba,-28.24,-48.6703,19.36,92,8,5.78,BR,1690006882
88,siguiri,11.6667,-9.5,22.76,93,92,2.58,GN,1690006882
89,kingston,17.997,-76.7936,27.53,82,20,1.03,JM,1690006708
90,rustaq,23.3908,57.4244,36.51,43,89,1.99,OM,1690006882
91,charters towers,-20.1,146.2667,25.16,25,11,5.39,AU,1690006882
92,taiynsha,53.8478,69.7639,24.27,46,2,6.25,KZ,1690006882
93,geraldton,-28.7667,114.6,20.23,49,0,4.63,AU,1690006883
94,saint-pierre,-21.3393,55.4781,24.2,83,100,8.23,RE,1690006717
95,le grazie di ancona,43.6008,13.5153,29.21,62,0,1.54,IT,1690006883
96,longyearbyen,78.2186,15.6401,7.91,66,75,3.09,SJ,1690006710
97,tazovsky,67.4667,78.7,20.58,68,97,3.75,RU,1690006713
98,minab,27.1467,57.0801,34.36,60,93,3.14,IR,1690006883
99,ishigaki,24.3448,124.1572,32.07,74,75,4.63,JP,1690006883
100,nadi,-17.8,177.4167,24.0,78,20,1.03,FJ,1690006883
101,urangan,-25.3,152.9,19.8,58,0,7.24,AU,1690006883
102,sandnessjoen,66.0217,12.6316,13.29,94,100,2.1,NO,1690006740
103,alta,69.9689,23.2717,10.59,80,100,4.47,NO,1690006883
104,mandiana,10.6333,-8.6833,22.15,90,75,3.29,GN,1690006883
105,cabo san lucas,22.8909,-109.9124,32.01,72,1,5.57,MX,1690006405
106,thompson,55.7435,-97.8558,16.09,94,75,1.54,CA,1690006583
107,nova sintra,14.8667,-24.7167,22.82,80,46,6.86,CV,1690006727
108,the pas,53.8251,-101.2541,17.01,94,40,3.09,CA,1690006885
109,buri ram,14.9943,103.1039,34.33,53,51,2.89,TH,1690006885
110,ust-nera,64.5667,143.2,14.11,93,100,2.08,RU,1690006705
111,laguna,38.421,-121.4238,31.29,44,0,2.06,US,1690006698
112,puerto baquerizo moreno,-0.9,-89.6,24.47,80,88,6.23,EC,1690006886
113,whitehorse,60.7161,-135.0538,17.67,76,100,3.09,CA,1690006728
114,alice springs,-23.7,133.8833,16.75,29,0,8.23,AU,1690006886
115,klyuchi,52.2667,79.1667,21.69,67,53,9.47,RU,1690006736
116,perryville,37.7242,-89.8612,17.92,100,40,2.06,US,1690006886
117,farshut,26.0549,32.1633,33.35,15,1,4.03,EG,1690006886
118,fale old settlement,-9.3852,-171.2468,28.54,72,31,3.79,TK,1690006736
119,santander,43.4647,-3.8044,17.55,90,0,0.89,ES,1690006886
120,port elizabeth,-33.918,25.5701,13.45,81,80,2.32,ZA,1690006712
121,lodeve,43.7167,3.3167,21.48,66,25,3.18,FR,1690006887
122,terrace,54.5163,-128.6035,17.95,94,100,2.06,CA,1690006887
123,burang,30.25,81.1667,13.77,73,95,3.29,CN,1690006756
124,vorgashor,67.5833,63.95,21.8,66,100,4.13,RU,1690006769
125,sitka,57.0531,-135.33,15.94,77,100,2.06,US,1690006771
126,broken hill,-31.95,141.4333,13.52,43,26,4.24,AU,1690006703
127,codrington,-38.2667,141.9667,13.32,72,97,3.66,AU,1690006694
128,amurzet,47.6967,131.0981,26.98,55,100,2.18,RU,1690006887
129,port hedland,-20.3167,118.5667,28.03,13,0,8.23,AU,1690006887
130,taro,-8.3862,115.28,24.0,74,96,3.15,ID,1690006888
131,enewetak,11.3474,162.3373,28.81,77,92,6.09,MH,1690006715
132,portoferraio,42.8115,10.3146,29.17,81,1,4.81,IT,1690006888
133,minas de marcona,-15.2119,-75.1103,11.95,89,57,5.74,PE,1690006638
134,tsiombe,-25.3,45.4833,20.3,64,23,5.11,MG,1690006762
135,saldanha,-33.0117,17.9442,10.6,60,100,1.89,ZA,1690006577
136,keflavik,64.0049,-22.5624,11.24,76,75,2.57,IS,1690006717
137,hovd,48.0056,91.6419,23.73,36,100,2.73,MN,1690006757
138,okoneshnikovo,54.8377,75.0834,17.25,91,100,4.91,RU,1690006888
139,tomatlan,19.9333,-105.25,24.66,77,100,0.74,MX,1690006888
140,tukrah,32.5341,20.5791,30.44,44,0,2.76,LY,1690006889
141,atafu village,-8.5421,-172.5159,28.74,73,20,4.66,TK,1690006700
142,chilakalurupet,16.0833,80.1667,33.36,49,100,7.52,IN,1690006889
143,palmer,42.1584,-72.3287,19.23,85,20,0.0,US,1690006710
144,udachny,66.4167,112.4,26.92,41,87,7.66,RU,1690006698
145,badger,64.8,-147.5333,25.93,57,0,2.06,US,1690006699
146,faaa,-17.55,-149.6,22.98,68,20,1.03,PF,1690006889
147,kinna,57.5073,12.6946,14.63,90,94,2.1,SE,1690006889
148,khandyga,62.6667,135.6,17.07,81,100,1.5,RU,1690006889
149,nantucket,41.2835,-70.0995,21.06,100,100,2.57,US,1690006570
150,kangding,30.0513,101.9603,25.22,44,7,2.93,CN,1690006890
151,saurimo,-9.6608,20.3916,18.45,40,15,2.17,AO,1690006726
152,port alfred,-33.5906,26.891,18.14,60,63,6.14,ZA,1690006699
153,paranagua,-25.52,-48.5092,17.09,97,82,0.61,BR,1690006890
154,kailua-kona,19.6406,-155.9956,27.98,87,75,6.17,US,1690006756
155,noumea,-22.2763,166.4572,19.99,70,61,5.39,NC,1690006455
156,ipatinga,-19.4683,-42.5367,18.04,68,0,1.03,BR,1690006890
157,nalut,30.3333,10.85,29.29,24,0,5.32,LY,1690006890
158,carnarvon,-24.8667,113.6333,23.2,23,0,8.63,AU,1690006726
159,cadale,2.7603,46.3222,26.64,74,71,7.87,SO,1690006891
160,luderitz,-26.6481,15.1594,12.76,49,97,3.09,NA,1690006729
161,pitkyaranta,61.5734,31.4792,13.88,91,100,6.31,RU,1690006891
162,tutoia,-2.7619,-42.2744,22.65,84,7,3.7,BR,1690006891
163,papatowai,-46.5619,169.4708,6.16,78,5,6.22,NZ,1690006690
164,vadso,70.0744,29.7487,9.09,87,100,7.72,NO,1690006715
165,morondava,-20.2833,44.2833,24.93,73,74,4.41,MG,1690006891
166,opuwo,-18.0607,13.84,14.8,30,0,1.9,NA,1690006753
167,oistins,13.0667,-59.5333,27.05,83,40,4.63,BB,1690006631
168,jiayuguan,39.8167,98.3,31.67,9,0,4.43,CN,1690006891
169,pisco,-13.7,-76.2167,19.03,77,100,2.57,PE,1690006470
170,vire,48.9167,-0.8333,12.66,92,64,3.21,FR,1690006892
171,las trojes,14.0667,-85.9833,19.76,99,99,1.22,HN,1690006892
172,verkhnevilyuysk,63.4453,120.3167,26.78,45,54,3.7,RU,1690006892
173,almazan,41.4865,-2.5309,12.66,77,3,1.78,ES,1690006892
174,cururupu,-1.8283,-44.8683,22.42,89,7,0.95,BR,1690006888
175,boulder,40.0833,-105.3505,16.49,70,0,4.63,US,1690006631
176,bousso,10.4795,16.7117,25.45,81,89,1.62,TD,1690006892
177,aasiaat,68.7098,-52.8699,3.12,98,100,3.67,GL,1690006716
178,tralee,52.2704,-9.7026,15.48,99,100,2.77,IE,1690006699
179,kargasok,59.0556,80.8572,25.19,66,37,2.18,RU,1690006892
180,santiago de cao,-7.9589,-79.2392,21.07,83,75,2.57,PE,1690006892
181,mitu,1.1983,-70.1733,21.12,98,50,0.51,CO,1690006734
182,timbuktu,16.7735,-3.0074,31.88,37,85,6.12,ML,1690006893
183,floro,61.5996,5.0328,13.98,77,40,2.06,NO,1690006740
184,buala,-8.145,159.5921,27.46,84,81,2.19,SB,1690006893
185,stanley,54.868,-1.6985,11.96,94,75,2.06,GB,1690006464
186,palangkaraya,-2.2,113.8333,31.77,53,95,1.38,ID,1690006893
187,mahajanga,-15.7167,46.3167,28.01,42,20,4.63,MG,1690006893
188,fortuna,40.5982,-124.1573,14.4,95,100,0.45,US,1690006564
189,hermanus,-34.4187,19.2345,10.56,60,100,3.4,ZA,1690006708
190,sosua,19.7667,-70.5167,25.99,94,40,0.0,DO,1690006775
191,lompoc,34.6391,-120.4579,17.08,95,100,2.57,US,1690006703
192,kavaratti,10.5669,72.642,28.34,81,89,9.39,IN,1690006746
193,hohhot,40.8106,111.6522,27.73,64,75,5.0,CN,1690006894
194,isafjordur,66.0755,-23.124,10.78,75,98,0.93,IS,1690006703
195,portland,45.5234,-122.6762,23.99,57,0,2.57,US,1690006486
196,harper,4.375,-7.7169,24.76,82,85,5.44,LR,1690006894
197,anadyr,64.75,177.4833,17.28,77,0,5.0,RU,1690006706
198,fuglafjordur,62.244,-6.814,11.26,93,81,3.31,FO,1690006894
199,thurso,58.5927,-3.5259,11.59,88,10,1.59,GB,1690006699
200,toliara,-23.35,43.6667,22.63,57,0,3.85,MG,1690006894
201,taoudenni,22.6783,-3.9836,33.79,15,15,1.52,ML,1690006700
202,sao joao da barra,-21.6403,-41.0511,19.98,72,33,3.2,BR,1690006723
203,lubango,-14.9172,13.4925,10.92,50,27,1.03,AO,1690006894
204,chavusy,53.8075,30.9712,15.45,78,50,2.63,BY,1690006894
205,argo,37.6333,22.7333,30.44,30,0,1.21,GR,1690006894
206,greymouth,-42.4667,171.2,6.23,80,57,2.56,NZ,1690006760
207,st. john's,47.5649,-52.7093,20.71,94,100,1.03,CA,1690006606
208,georgetown,5.4112,100.3354,32.75,78,20,4.63,MY,1690006405
209,ocean city,39.2776,-74.5746,25.01,83,59,0.45,US,1690006895
210,acapulco de juarez,16.8634,-99.8901,29.9,84,100,1.54,MX,1690006895
211,fendou,46.65,124.8667,20.45,91,100,4.36,CN,1690006895
212,ndola,-12.9587,28.6366,16.14,66,4,4.12,ZM,1690006895
213,bom jesus,-9.0744,-44.3586,18.0,73,0,0.95,BR,1690006735
214,sol'-iletsk,51.1631,54.9918,27.27,33,69,6.82,RU,1690006895
215,acarau,-2.8856,-40.12,23.23,87,13,5.32,BR,1690006527
216,la passe,45.5549,-0.8967,18.32,70,0,1.98,FR,1690006762
217,nekrasovskoye,57.6766,40.3657,17.94,67,0,4.0,RU,1690006896
218,bayanhongor,46.7167,100.1167,19.18,42,39,2.85,MN,1690006896
219,bogorodskoye,56.55,37.8833,17.33,65,13,4.78,RU,1690006896
220,la ronge,55.1001,-105.2842,19.14,55,100,2.57,CA,1690006896
221,sinop,41.7711,34.8709,22.24,43,0,1.14,TR,1690006765
222,antsiranana,-12.2787,49.2917,27.42,47,20,7.2,MG,1690006896
223,bodaybo,57.8506,114.1933,27.36,45,13,0.39,RU,1690006896
224,robertsport,6.7533,-11.3686,25.2,85,64,5.62,LR,1690006752
225,pemalang,-6.9,109.3667,30.23,53,25,3.2,ID,1690006896
226,galesong,-5.3166,119.3661,31.01,67,10,5.94,ID,1690006896
227,dubbo,-32.25,148.6167,14.07,47,3,5.66,AU,1690006897
228,tarawa,1.419,172.984,27.05,94,75,2.57,KI,1690006897
229,delaware,39.0004,-75.4999,22.85,91,0,1.54,US,1690006897
230,totness,5.8833,-56.3167,25.15,87,31,3.85,SR,1690006897
231,saipan,15.1355,145.701,30.39,100,75,6.17,MP,1690006723
232,chardara,41.2547,67.9692,34.03,21,0,3.92,KZ,1690006897
233,northam,51.0333,-4.2167,14.66,94,90,7.19,GB,1690006768
234,sheridan,44.8333,-106.9173,20.17,69,0,2.06,US,1690006897
235,lebu,-37.6167,-73.65,10.11,89,100,3.66,CL,1690006705
236,swakopmund,-22.6833,14.5333,7.47,77,0,2.32,NA,1690006898
237,ji'an,27.1172,114.9793,35.95,52,68,3.1,CN,1690006898
238,umba,66.6871,34.3429,11.55,80,98,5.91,RU,1690006898
239,mwinilunga,-11.7358,24.4293,17.16,46,33,3.12,ZM,1690006898
240,rosarito,32.3333,-117.0333,18.53,69,6,3.79,MX,1690006358
241,banda aceh,5.5577,95.3222,31.41,60,98,7.73,ID,1690006898
242,pierre,44.3683,-100.351,19.6,72,0,1.54,US,1690006899
243,remire-montjoly,4.9167,-52.2667,24.02,100,100,0.0,GF,1690006706
244,rovaniemi,66.5,25.7167,9.67,100,100,3.6,FI,1690006899
245,fada n'gourma,12.0622,0.3578,25.61,80,95,3.64,BF,1690006899
246,lazaro cardenas,17.9583,-102.2,26.86,87,29,0.94,MX,1690006899
247,aden,12.7794,45.0367,30.7,76,94,0.88,YE,1690006899
248,myadzyel,54.8731,26.9359,17.38,60,47,2.09,BY,1690006899
249,eureka,40.8021,-124.1637,14.55,93,12,2.24,US,1690006899
250,bosaso,11.2842,49.1816,35.99,36,0,13.89,SO,1690006901
251,dakhla,23.6848,-15.958,21.01,83,40,14.92,EH,1690006901
252,bargaal,11.2864,51.0773,33.58,41,75,15.34,SO,1690006901
253,kapuskasing,49.4169,-82.4331,9.05,100,0,0.0,CA,1690006502
254,champerico,14.3,-91.9167,28.07,81,20,2.26,GT,1690006739
255,aparecida,-22.8469,-45.2297,12.46,96,4,1.1,BR,1690006901
256,colonia,50.9333,6.95,17.46,74,0,2.57,DE,1690006711
257,gwalior,26.2236,78.1792,37.02,42,34,7.4,IN,1690006902
258,san patricio,28.017,-97.5169,29.36,79,1,4.31,US,1690006730
259,bizerte,37.2744,9.8739,30.0,58,20,2.57,TN,1690006653
260,touros,-5.1989,-35.4608,22.09,85,2,5.92,BR,1690006681
261,kalix,65.853,23.1565,10.94,95,100,5.0,SE,1690006903
262,luanda,-8.8368,13.2343,20.0,88,75,2.06,AO,1690006564
263,natal,-5.795,-35.2094,23.12,83,75,4.63,BR,1690006903
264,katsuren-haebaru,26.3369,127.8719,32.01,79,92,2.71,JP,1690006760
265,adel,31.1371,-83.4235,23.81,82,28,3.07,US,1690006903
266,qaqortoq,60.7167,-46.0333,6.02,97,76,0.31,GL,1690006729
267,horta,38.5333,-28.6333,19.45,90,40,3.58,PT,1690006903
268,zhangjiakou,40.81,114.8794,27.64,47,74,2.15,CN,1690006903
269,arraial do cabo,-22.9661,-42.0278,20.68,75,56,7.54,BR,1690006704
270,prince rupert,54.3161,-130.3201,15.83,97,0,2.57,CA,1690006743
271,kot malik barkhurdar,30.1944,66.993,32.14,25,77,0.8,PK,1690006903
272,tokar,18.4254,37.729,35.71,38,70,14.28,SD,1690006904
273,namibe,-15.1961,12.1522,17.56,87,14,2.45,AO,1690006904
274,oranjemund,-28.55,16.4333,11.02,55,100,1.54,NA,1690006904
275,kruisfontein,-34.0033,24.7314,10.33,84,99,1.95,ZA,1690006732
276,alice,27.7523,-98.0697,27.76,89,0,3.6,US,1690006904
277,wynyard,-41.0,145.7167,11.37,90,100,2.61,AU,1690006904
278,manokwari,-0.8667,134.0833,28.0,76,14,2.2,ID,1690006904
279,ofunato,39.0717,141.7167,24.91,81,82,3.12,JP,1690006904
280,dhromolaxia,34.8755,33.5868,30.81,71,0,2.57,CY,1690006904
281,iquique,-20.2208,-70.1431,18.02,69,5,2.22,CL,1690006904
282,dabhol,17.6,73.1667,24.65,93,100,4.96,IN,1690006904
283,bushehr,28.9684,50.8385,36.05,52,64,2.06,IR,1690006905
284,kimbe,-5.5502,150.1429,29.79,66,46,3.95,PG,1690006905
285,fontanelas,38.8472,-9.4372,19.29,84,20,4.63,PT,1690006905
286,al hazm,16.1641,44.7769,36.37,13,74,4.16,YE,1690006905
287,flying fish cove,-10.4217,105.6791,25.82,78,100,6.69,CX,1690006773
288,anloga,5.7947,0.8973,25.0,89,85,6.75,GH,1690006906
289,magong,23.5654,119.5863,29.13,79,68,4.51,TW,1690006906
290,chibougamau,49.9168,-74.3659,13.79,94,75,2.04,CA,1690006640
291,korla,41.7597,86.1469,36.78,15,91,3.24,CN,1690006906
292,punta arenas,-53.15,-70.9167,-2.82,74,99,3.06,CL,1690006420
293,fereydun kenar,36.6864,52.5225,27.47,71,30,5.61,IR,1690006906
294,brisas de zicatela,15.8369,-97.0419,26.56,76,99,2.23,MX,1690006716
295,hadibu,12.65,54.0333,26.62,75,53,15.14,YE,1690006742
296,ancud,-41.8697,-73.8203,7.78,89,94,2.24,CL,1690006663
297,jimma,7.6667,36.8333,16.57,94,100,0.46,ET,1690006906
298,hamilton,39.1834,-84.5333,19.93,88,0,2.57,US,1690006335
299,dunedin,-45.8742,170.5036,6.0,69,6,0.45,NZ,1690006703
300,zyryanovsk,49.7386,84.2719,32.43,22,44,1.1,KZ,1690006907
301,wenchang,30.904,118.4887,28.35,88,99,2.7,CN,1690006907
302,antalaha,-14.9003,50.2788,23.06,80,35,5.65,MG,1690006907
303,vilyuchinsk,52.9306,158.4028,24.15,69,64,4.27,RU,1690006703
304,lodja,-3.4833,23.4333,26.56,48,35,0.57,CD,1690006715
305,chonchi,-42.6128,-73.8092,7.29,97,100,0.78,CL,1690006723
306,namdrik,5.5994,168.1028,26.61,80,100,3.14,MH,1690006907
307,itoman,26.1247,127.6694,32.01,70,75,5.66,JP,1690006907
308,san fernando de apure,7.8878,-67.4724,22.87,98,100,1.78,VE,1690006907
309,barabai,-2.5833,115.3833,33.16,49,86,0.58,ID,1690006907
310,ladozhskaya,45.3081,39.935,25.6,62,0,0.28,RU,1690006879
311,liski,50.9841,39.5155,20.09,64,51,3.14,RU,1690006908
312,amos,48.5669,-78.1162,8.77,78,22,2.48,CA,1690006908
313,adrar,20.5022,-10.0711,30.95,37,23,8.24,MR,1690006908
314,westport,41.1415,-73.3579,23.19,87,0,2.06,US,1690006718
315,baruun-urt,46.6806,113.2792,24.83,40,9,5.99,MN,1690006909
316,tolanaro,-25.0319,46.9987,20.6,74,68,5.32,MG,1690006734
317,fasa,28.9383,53.6482,35.58,21,100,3.09,IR,1690006910
318,mount darwin,-16.7725,31.5838,14.33,70,1,2.04,ZW,1690006910
319,kostomuksha,64.571,30.5767,9.9,97,100,3.5,RU,1690006910
320,al jadid,27.05,14.4,30.58,21,0,4.98,LY,1690006910
321,abrud,46.2667,23.0667,16.92,98,77,2.35,RO,1690006910
322,las tablas,7.7667,-80.2833,26.43,85,100,2.56,PA,1690006910
323,boa vista,2.8197,-60.6733,23.99,88,40,0.51,BR,1690006910
324,carutapera,-1.195,-46.02,22.39,89,6,1.93,BR,1690006752
325,fort bragg,35.139,-79.006,25.51,81,0,0.45,US,1690006712
326,savonlinna,61.8699,28.88,14.03,94,75,3.6,FI,1690006911
327,la'ie,21.6477,-157.9253,27.98,81,24,5.66,US,1690006709
328,konarka,19.9,86.1167,30.22,76,98,7.34,IN,1690006911
329,houma,29.5958,-90.7195,28.33,83,0,0.0,US,1690006908
330,okha,53.5739,142.9478,22.63,53,75,5.3,RU,1690006730
331,ciudad lazaro cardenas,17.9583,-102.2,26.86,87,29,0.94,MX,1690006911
332,kryvyi rih,47.9167,33.35,23.48,45,83,3.61,UA,1690006911
333,thinadhoo,0.5333,72.9333,28.22,71,87,1.64,MV,1690006911
334,naze,28.3667,129.4833,29.51,75,99,3.15,JP,1690006912
335,san antonio,29.4241,-98.4936,29.73,63,0,5.14,US,1690006856
336,khawr fakkan,25.3313,56.342,32.03,59,65,3.39,AE,1690006912
337,new norfolk,-42.7826,147.0587,13.72,94,96,1.06,AU,1690006730
338,kutulik,53.3508,102.7839,25.16,44,1,4.33,RU,1690006912
339,hami,42.8,93.45,35.76,12,99,6.8,CN,1690006912
340,labrador city,52.9463,-66.9114,13.95,94,100,1.03,CA,1690006704
341,mazamari,-11.3258,-74.5308,20.82,80,63,0.92,PE,1690006665
342,al fashn,28.8243,30.8995,30.15,32,0,5.48,EG,1690006912
343,mersrags,57.3354,23.1246,16.66,67,48,5.42,LV,1690006913
344,sindgi,16.9167,76.2333,25.86,73,100,10.59,IN,1690006913
345,siwa oasis,29.2041,25.5195,31.71,27,0,2.98,EG,1690006913
346,port arthur,38.8,121.2667,25.12,99,100,6.21,CN,1690006913
347,daru,-9.0763,143.2092,26.33,69,61,6.17,PG,1690006913
348,ola,59.5833,151.2833,18.97,86,98,4.18,RU,1690006710
349,kirensk,57.7853,108.1119,29.56,31,4,1.71,RU,1690006913
350,dolores,-36.3132,-57.6792,18.94,92,100,3.08,AR,1690006913
351,samarinda,-0.5,117.15,30.54,61,85,2.46,ID,1690006913
352,abadan,30.3392,48.3043,41.97,12,0,7.2,IR,1690006913
353,pacific grove,36.6177,-121.9166,15.13,91,0,2.68,US,1690006913
354,mabaruma,8.2,-59.7833,23.28,97,79,1.35,GY,1690006914
355,severodvinsk,64.5635,39.8302,15.51,92,89,2.54,RU,1690006914
356,brokopondo,4.75,-55.1667,24.42,89,59,2.58,SR,1690006914
357,sur,22.5667,59.5289,32.23,60,93,1.9,OM,1690006914
358,broome,42.2506,-75.833,17.03,94,0,0.89,US,1690006914
359,hofors,60.5457,16.2867,14.66,70,15,2.08,SE,1690006914
360,kone,-21.0595,164.8658,19.84,63,64,3.56,NC,1690006688
361,langepas,61.2544,75.2124,24.81,51,84,4.93,RU,1690006914
362,lihue,21.9789,-159.3672,26.77,80,40,5.66,US,1690006509
363,molchanovo,57.5817,83.7692,26.54,52,57,2.61,RU,1690006914
364,mahibadhoo,3.7833,72.9667,28.15,74,97,4.04,MV,1690006914
365,salalah,17.0151,54.0924,26.05,100,100,3.6,OM,1690006675
366,veraval,20.9,70.3667,28.74,81,99,7.27,IN,1690006915
367,saudarkrokur,65.7461,-19.6394,9.39,79,99,1.17,IS,1690006915
368,puerto lempira,15.2667,-83.7667,26.27,89,95,3.15,HN,1690006915
369,chinju,35.1928,128.0847,28.9,84,100,2.2,KR,1690006915
370,ueno-ebisumachi,34.75,136.1333,35.24,56,20,4.5,JP,1690006915
371,nevel'sk,46.6733,141.8633,19.66,83,95,6.45,RU,1690006915
372,pitimbu,-7.4706,-34.8086,22.33,83,39,5.25,BR,1690006915
373,baglung,28.2719,83.5898,28.95,69,25,2.59,NP,1690006915
374,phek,25.6667,94.5,25.24,64,98,0.86,IN,1690006915
375,qazigund,33.6333,75.15,25.24,72,52,1.5,IN,1690006814
376,comodoro rivadavia,-45.8667,-67.5,6.92,57,0,3.09,AR,1690006915
377,zhezqazghan,47.7833,67.7667,28.32,24,0,4.0,KZ,1690006753
378,villa gesell,-37.2639,-56.973,17.25,99,100,2.69,AR,1690006777
379,mountain home,43.133,-115.6912,27.3,25,0,2.06,US,1690006745
380,hotan,37.0997,79.9269,34.46,17,99,6.65,CN,1690006916
381,mao,39.8885,4.2658,24.31,73,40,7.2,ES,1690006916
382,mpwapwa,-6.35,36.4833,21.16,56,8,4.09,TZ,1690006916
383,happy valley-goose bay,53.3168,-60.3315,19.17,59,40,2.57,CA,1690006708
384,ponta pora,-22.5361,-55.7256,18.81,53,0,5.64,BR,1690006916
385,canutama,-6.5339,-64.3831,22.47,63,0,0.89,BR,1690006916
386,veinticinco de mayo,-35.4323,-60.1727,15.55,100,100,0.89,AR,1690006916
387,mgandu,-5.95,34.1333,17.8,58,13,5.01,TZ,1690006916
388,ikwiriri,-7.9562,38.9716,26.9,47,44,3.99,TZ,1690006916
389,barrouallie,13.2333,-61.2667,25.56,82,96,2.79,VC,1690006917
390,sumbe,-11.2061,13.8437,20.38,86,84,2.36,AO,1690006917
391,rudsar,37.1376,50.288,28.99,66,53,2.3,IR,1690006917
392,quellon,-43.1167,-73.6167,6.14,93,100,2.06,CL,1690006917
393,thanh pho uong bi,21.0333,106.7833,31.99,68,71,1.88,VN,1690006917
394,stara vyzhivka,51.4376,24.44,16.88,85,100,3.94,UA,1690006917
395,vilyuysk,63.7553,121.6247,26.29,43,78,3.21,RU,1690006917
396,dryden,49.7833,-92.7503,16.16,88,75,1.54,CA,1690006761
397,lerwick,60.1545,-1.1494,12.0,83,35,2.74,GB,1690006700
398,poletayevo,55.0336,61.1138,21.9,50,100,3.85,RU,1690006918
399,al faw,29.9776,48.4741,42.0,14,3,8.26,IQ,1690006918
400,merowe,18.4833,31.8167,36.54,9,100,3.61,SD,1690006918
401,santa maria,-29.6842,-53.8069,21.38,73,90,5.26,BR,1690006918
402,gurupi,-11.7292,-49.0686,20.23,55,0,2.95,BR,1690006918
403,eenhana,-17.4667,16.3333,14.13,47,3,2.69,NA,1690006918
404,rio preto da eva,-2.6994,-59.6997,24.43,63,56,0.92,BR,1690006918
405,camayenne,9.535,-13.6878,24.05,100,100,0.0,GN,1690006918
406,sola,-13.8833,167.55,25.0,83,99,5.24,VU,1690006723
407,great falls,47.5002,-111.3008,24.12,46,0,2.57,US,1690006918
408,yanchep,-31.55,115.6833,20.9,51,0,1.58,AU,1690006918
409,putina,-15.4667,-69.4333,5.88,61,0,1.31,PE,1690006919
410,axim,4.8699,-2.2405,23.88,91,88,4.08,GH,1690006919
411,puerto quijarro,-17.7833,-57.7667,19.38,45,0,1.4,BO,1690006919
412,asbury lake,30.0491,-81.8215,28.97,77,0,3.6,US,1690006919
413,saltillo,25.4167,-101.0,20.09,48,1,1.45,MX,1690006775
414,santos reyes nopala,16.1092,-97.1561,21.43,83,100,2.39,MX,1690006919
415,miracema do tocantins,-9.5618,-48.3967,20.55,52,4,1.31,BR,1690006919
416,manicore,-5.8092,-61.3003,22.14,62,2,0.95,BR,1690006919
417,mkushi,-13.6202,29.3939,16.33,64,4,4.22,ZM,1690006919
418,hilo,19.7297,-155.09,27.93,87,100,1.54,US,1690006919
419,faya-largeau,17.9257,19.1043,33.67,33,35,3.01,TD,1690006718
420,junin de los andes,-39.9504,-71.0694,3.19,94,52,2.56,AR,1690006919
421,lulea,65.5842,22.1547,12.04,94,100,3.6,SE,1690006920
422,newman,37.3138,-121.0208,30.99,69,20,2.34,US,1690006724
423,shawano,44.7822,-88.609,18.99,88,0,0.0,US,1690006920
424,mhamid,29.82,-5.72,31.33,12,0,2.38,MA,1690006920
425,chalus,36.655,51.4204,29.7,62,20,1.03,IR,1690006920
426,klaksvik,62.2266,-6.589,11.51,93,88,4.63,FO,1690006920
427,santa rosa del sur,7.9644,-74.0544,21.18,95,100,1.13,CO,1690006920
428,san andres,12.5847,-81.7006,29.01,84,20,4.12,CO,1690006920
429,djibouti,11.5,42.5,33.6,32,80,8.46,DJ,1690006920
430,novodvinsk,64.4165,40.8122,15.11,92,97,2.05,RU,1690006920
431,saint augustine beach,29.8505,-81.2654,28.39,78,25,4.12,US,1690006921
432,edmundston,47.3737,-68.3251,18.63,94,100,2.06,CA,1690006921
433,yuzhno-kurilsk,44.0306,145.8556,18.26,83,37,4.84,RU,1690006701
434,dali,25.7,100.1833,22.4,79,91,0.73,CN,1690006857
435,emerald,-23.5333,148.1667,25.19,26,2,3.55,AU,1690006679
436,ennis,52.8436,-8.9864,15.96,100,100,4.12,IE,1690006921
437,mount isa,-20.7333,139.5,21.87,26,0,5.66,AU,1690006921
438,collie,-33.3667,116.15,17.35,51,0,1.45,AU,1690006921
439,kefamenanu,-9.4467,124.4781,27.14,44,82,4.65,ID,1690006921
440,srandakan,-7.9386,110.2506,27.38,66,64,6.39,ID,1690006921
441,kayangel,8.0823,134.7173,28.14,78,100,4.51,PW,1690006770
442,kuytun,54.3419,101.5036,26.59,36,0,5.63,RU,1690006921
443,andergrove,-21.0833,149.1833,21.17,66,35,2.33,AU,1690006921
444,new plymouth,-39.0667,174.0833,8.78,77,68,5.07,NZ,1690006922
445,aberdeen,57.1437,-2.0981,12.27,90,98,1.03,GB,1690006727
446,nar'yan-mar,67.6713,53.087,12.24,88,99,5.95,RU,1690006719
447,labuan bajo,-8.4964,119.8877,29.84,51,71,1.94,ID,1690006922
448,mili,6.0815,171.735,27.88,74,99,2.0,MH,1690006922
449,nemuro,43.3236,145.575,16.71,90,24,6.43,JP,1690006736
450,kharan,28.5833,65.4167,37.64,26,90,4.68,PK,1690006923
451,tazacorte,28.629,-17.9293,23.97,64,20,9.77,ES,1690006701
452,jijiga,9.35,42.8,17.51,83,100,10.84,ET,1690006923
453,beau vallon,-20.4189,57.6953,25.13,65,20,5.66,MU,1690006924
454,malvan,16.0667,73.4667,25.67,91,100,8.68,IN,1690006924
455,la gi,10.6667,107.7833,29.49,74,99,4.13,VN,1690006924
456,brookings,44.3114,-96.7984,15.59,100,21,2.43,US,1690006763
457,bangassou,4.7413,22.8184,22.7,79,98,1.46,CF,1690006924
458,chaiyaphum,15.75,102.0,32.27,57,39,2.46,TH,1690006924
459,jincheng,35.5022,112.8328,32.48,35,8,5.1,CN,1690006925
460,caleta de carquin,-11.0925,-77.6267,18.83,87,35,5.05,PE,1690006925
461,fort st. john,56.2499,-120.8529,17.94,63,75,1.03,CA,1690006925
462,merizo village,13.2658,144.6691,32.31,85,87,5.58,GU,1690006717
463,yankton,42.8711,-97.3973,20.06,100,0,1.54,US,1690006733
464,ponta delgada,37.7333,-25.6667,19.4,88,40,1.54,PT,1690006720
465,torata,-17.0769,-70.8433,13.33,35,0,0.48,PE,1690006925
466,nelson bay,-32.7167,152.15,16.67,70,71,4.92,AU,1690006764
467,altenberg,50.7656,13.7533,13.74,93,11,4.02,DE,1690006926
468,guerrero negro,27.9769,-114.0611,19.57,82,47,5.91,MX,1690006719
469,haiku-pauwela,20.9219,-156.3051,24.47,82,40,8.23,US,1690006737
470,motueka,-41.1333,173.0167,8.09,65,70,2.14,NZ,1690006926
471,celestun,20.8667,-90.4,25.98,81,48,4.61,MX,1690006712
472,saint clairsville,40.0806,-80.9001,17.33,95,3,1.74,US,1690006926
473,bodo,67.28,14.405,14.41,94,100,2.24,NO,1690006716
474,puerto leguizamo,-0.1934,-74.7819,21.38,99,100,1.04,CO,1690006926
475,parnu,58.3859,24.4971,18.05,72,20,5.66,EE,1690006926
476,gobabis,-22.45,18.9667,9.87,64,1,4.37,NA,1690006926
477,montepuez,-13.1256,38.9997,21.95,51,38,4.48,MZ,1690006927
478,zhosaly,45.4878,64.0781,32.61,19,38,4.24,KZ,1690006927
479,sulak,43.2734,47.5146,29.68,51,3,5.49,RU,1690006927
480,santana,-0.0583,-51.1817,25.1,100,75,1.03,BR,1690006769
481,svetlyy,54.675,20.1347,16.65,89,100,3.46,RU,1690006927
482,turaif,31.6725,38.6637,32.14,11,0,2.57,SA,1690006927
483,crane,31.3974,-102.3501,28.19,44,46,8.27,US,1690006765
484,carloforte,39.145,8.3058,26.29,79,66,5.42,IT,1690006928
485,ulsteinvik,62.3432,5.8487,15.17,77,95,3.13,NO,1690006928
486,kuta,-8.7233,115.1723,27.97,69,20,10.29,ID,1690006928
487,mantua,45.1667,10.7833,23.94,90,35,0.89,IT,1690006928
488,madera,37.1666,-119.8343,31.24,38,16,2.25,US,1690006928
489,lent'ekhi,42.7856,42.7261,25.92,62,23,1.69,GE,1690006928
490,okulovka,58.4008,33.2908,16.53,65,73,5.6,RU,1690006928
491,torbat-e jam,35.244,60.6225,32.27,13,0,10.27,IR,1690006929
492,winburg,-28.518,27.0093,6.04,87,10,4.86,ZA,1690006929
493,mount pearl,47.5166,-52.7813,20.25,94,100,1.03,CA,1690006709
494,amga,60.8953,131.9608,22.5,36,2,5.28,RU,1690006929
495,egilsstadir,65.2653,-14.3948,7.95,87,0,0.0,IS,1690006727
496,huntsville,34.7304,-86.5861,22.53,87,100,2.06,US,1690006734
497,cidreira,-30.1811,-50.2056,16.55,94,66,5.26,BR,1690006929
498,three points,32.0767,-111.3137,33.64,27,0,3.09,US,1690006929
499,san luis de la loma,17.2706,-100.8939,26.93,84,99,1.63,MX,1690006929
500,san antonio de pale,-1.4014,5.6325,23.0,76,56,5.8,GQ,1690006929
501,susuman,62.7833,148.1667,24.11,47,81,6.03,RU,1690006713
502,prainha,-1.8,-53.48,23.0,76,54,1.52,BR,1690006930
503,auki,-8.7676,160.7034,27.17,86,84,1.71,SB,1690006930
504,enshi,30.3,109.4833,33.95,50,24,0.76,CN,1690006930
505,howrah,22.5892,88.3103,31.0,79,75,5.66,IN,1690006930
506,long beach,33.767,-118.1892,23.99,90,0,2.57,US,1690006930
507,porto novo,6.4965,2.6036,24.38,91,99,3.11,BJ,1690006868
508,inhambane,-23.865,35.3833,17.99,88,75,0.0,MZ,1690006931
509,basco,20.4487,121.9702,29.37,77,68,4.56,PH,1690006931
510,gorontalo,0.5412,123.0595,30.58,60,19,4.23,ID,1690006931
511,lammi,61.0833,25.0167,15.86,70,99,2.69,FI,1690006931
512,guercif,34.2257,-3.3536,26.78,29,71,0.9,MA,1690006932
513,urengoy,65.9667,78.3667,24.12,59,87,3.24,RU,1690006708
514,taulaga,-11.0553,-171.0883,28.4,73,8,2.23,AS,1690006932
515,belmonte,-15.8631,-38.8828,21.13,86,28,5.28,BR,1690006932
516,preobrazheniye,42.9019,133.9064,23.46,77,96,4.17,RU,1690006932
517,genhe,50.7833,121.5167,13.68,99,100,3.98,CN,1690006932
518,sarangani,5.4033,125.4636,28.15,76,100,7.54,PH,1690006932
519,warren,39.4334,-84.1666,19.1,86,0,2.06,US,1690006933
520,gao,16.6362,1.637,29.62,45,97,4.87,ML,1690006933
521,marka,1.7159,44.7717,26.69,73,78,6.61,SO,1690006704
522,fort mcmurray,56.7268,-111.381,21.73,64,0,2.57,CA,1690006529
523,sainte-suzanne,-20.9061,55.6089,25.1,73,20,8.23,RE,1690006933
524,roma,43.2128,-75.4557,17.63,94,0,2.57,US,1690006768
